[{"Prefix":"ст.","Label":"ст. Абазовка, Украина","LabelTail":"Украина","Value":"Абазовка","Gid":"0","Lon":34.354722222222,"Lat":49.605277777778,"Exp":"2204575","Ecp":"0"},{"Prefix":"ст.","Label":"ст. Абамеликово, Украина","LabelTail":"Украина","Value":"Абамеликово","Gid":"0","Lon":0.0,"Lat":0.0,"Exp":"2208439","Ecp":"0"},{"Prefix":"ст.","Label":"ст. Августовский, Украина","LabelTail":"Украина","Value":"Августовский","Gid":"0","Lon":0.0,"Lat":0.0,"Exp":"2204551","Ecp":"0"},{"Prefix":"ст.","Label":"ст. Авдеевка, Украина","LabelTail":"Украина","Value":"Авдеевка","Gid":"0","Lon":31.673611111111,"Lat":51.475,"Exp":"2214039","Ecp":"0"},{"Prefix":"ст.","Label":"ст. Автостанция, Украина","LabelTail":"Украина","Value":"Автостанция","Gid":"0","Lon":0.0,"Lat":0.0,"Exp":"2204029","Ecp":"0"},{"Prefix":"ст.","Label":"ст. Адабаш, Украина","LabelTail":"Украина","Value":"Адабаш","Gid":"0","Lon":0.0,"Lat":0.0,"Exp":"2208349","Ecp":"0"},{"Prefix":"ст.","Label":"ст. Адамовское, Украина","LabelTail":"Украина","Value":"Адамовское","Gid":"0","Lon":34.181111111111,"Lat":48.395277777778,"Exp":"2210937","Ecp":"0"},{"Prefix":"ст.","Label":"ст. Адамполь, Украина","LabelTail":"Украина","Value":"Адамполь","Gid":"0","Lon":27.657222222222,"Lat":49.669166666667,"Exp":"2200221","Ecp":"0"},{"Prefix":"ст.","Label":"ст. Азовская, Украина","LabelTail":"Украина","Value":"Азовская","Gid":"0","Lon":0.0,"Lat":0.0,"Exp":"2210805","Ecp":"0"},{"Prefix":"ст.","Label":"ст. Айвазовская, Украина","LabelTail":"Украина","Value":"Айвазовская","Gid":"0","Lon":0.0,"Lat":0.0,"Exp":"2210766","Ecp":"0"},{"Prefix":"ст.","Label":"ст. Академгородок, Украина","LabelTail":"Украина","Value":"Академгородок","Gid":"0","Lon":0.0,"Lat":0.0,"Exp":"2201195","Ecp":"0"},{"Prefix":"ст.","Label":"ст. Акимовка, Украина","LabelTail":"Украина","Value":"Акимовка","Gid":"0","Lon":29.526111111111,"Lat":49.281666666667,"Exp":"2210675","Ecp":"0"},{"Prefix":"ст.","Label":"ст. Аккаржа, Украина","LabelTail":"Украина","Value":"Аккаржа","Gid":"0","Lon":0.0,"Lat":0.0,"Exp":"2208483","Ecp":"0"},{"Prefix":"ст.","Label":"ст. Аксютовка, Украина","LabelTail":"Украина","Value":"Аксютовка","Gid":"0","Lon":36.204722222222,"Lat":49.808333333333,"Exp":"2204738","Ecp":"0"},{"Prefix":"ст.","Label":"ст. Алебастровая, Украина","LabelTail":"Украина","Value":"Алебастровая","Gid":"0","Lon":0.0,"Lat":0.0,"Exp":"2214097","Ecp":"0"},{"Prefix":"ст.","Label":"ст. Александрия, Украина","LabelTail":"Украина","Value":"Александрия","Gid":"0","Lon":24.846666666667,"Lat":51.501666666667,"Exp":"2208380","Ecp":"0"},{"Prefix":"ст.","Label":"ст. Александрия-Ровенская, Украина","LabelTail":"Украина","Value":"Александрия-Ровенская","Gid":"0","Lon":0.0,"Lat":0.0,"Exp":"2218524","Ecp":"0"},{"Prefix":"ст.","Label":"ст. Александровка, Украина","LabelTail":"Украина","Value":"Александровка","Gid":"0","Lon":23.506388888889,"Lat":48.136111111111,"Exp":"2209384","Ecp":"0"},{"Prefix":"ст.","Label":"ст. Александровка, Украина","LabelTail":"Украина","Value":"Александровка","Gid":"0","Lon":23.506388888889,"Lat":48.136111111111,"Exp":"2210255","Ecp":"0"},{"Prefix":"ст.","Label":"ст. Александровка, Украина","LabelTail":"Украина","Value":"Александровка","Gid":"0","Lon":23.506388888889,"Lat":48.136111111111,"Exp":"2204632","Ecp":"0"},{"Prefix":"ст.","Label":"ст. Александровка, Украина","LabelTail":"Украина","Value":"Александровка","Gid":"0","Lon":23.506388888889,"Lat":48.136111111111,"Exp":"2214032","Ecp":"0"},{"Prefix":"ст.","Label":"ст. Александровка, Украина","LabelTail":"Украина","Value":"Александровка","Gid":"0","Lon":23.506388888889,"Lat":48.136111111111,"Exp":"2208011","Ecp":"0"},{"Prefix":"ст.","Label":"ст. Алексино, Украина","LabelTail":"Украина","Value":"Алексино","Gid":"0","Lon":34.937222222222,"Lat":50.521111111111,"Exp":"2204855","Ecp":"0"},{"Prefix":"ст.","Label":"ст. Алияга, Украина","LabelTail":"Украина","Value":"Алияга","Gid":"0","Lon":0.0,"Lat":0.0,"Exp":"2208495","Ecp":"0"},{"Prefix":"ст.","Label":"ст. Алтыновка, Украина","LabelTail":"Украина","Value":"Алтыновка","Gid":"0","Lon":33.189444444444,"Lat":51.453333333333,"Exp":"2200286","Ecp":"0"},{"Prefix":"ст.","Label":"ст. Амбары, Украина","LabelTail":"Украина","Value":"Амбары","Gid":"0","Lon":34.4625,"Lat":51.001388888889,"Exp":"2204495","Ecp":"0"},{"Prefix":"ст.","Label":"ст. Амвросиевка, Украина","LabelTail":"Украина","Value":"Амвросиевка","Gid":"0","Lon":38.480833333333,"Lat":47.795833333333,"Exp":"2214247","Ecp":"0"},{"Prefix":"ст.","Label":"ст. Аметхан-Султан, Украина","LabelTail":"Украина","Value":"Аметхан-Султан","Gid":"0","Lon":0.0,"Lat":0.0,"Exp":"2210044","Ecp":"0"},{"Prefix":"ст.","Label":"ст. Ангеловка, Украина","LabelTail":"Украина","Value":"Ангеловка","Gid":"0","Lon":23.927222222222,"Lat":48.874722222222,"Exp":"2218335","Ecp":"0"},{"Prefix":"ст.","Label":"ст. Андреевка, Украина","LabelTail":"Украина","Value":"Андреевка","Gid":"0","Lon":22.548611111111,"Lat":48.525555555556,"Exp":"2204945","Ecp":"0"},{"Prefix":"ст.","Label":"ст. Андреяшевка, Украина","LabelTail":"Украина","Value":"Андреяшевка","Gid":"0","Lon":0.0,"Lat":0.0,"Exp":"2204539","Ecp":"0"},{"Prefix":"ст.","Label":"ст. Андрусово, Украина","LabelTail":"Украина","Value":"Андрусово","Gid":"0","Lon":34.179166666667,"Lat":44.896666666667,"Exp":"2200163","Ecp":"0"},{"Prefix":"ст.","Label":"ст. Андрушевка, Украина","LabelTail":"Украина","Value":"Андрушевка","Gid":"0","Lon":29.211666666667,"Lat":49.361666666667,"Exp":"2200153","Ecp":"0"},{"Prefix":"ст.","Label":"ст. Анисово, Украина","LabelTail":"Украина","Value":"Анисово","Gid":"0","Lon":0.0,"Lat":0.0,"Exp":"2201122","Ecp":"0"},{"Prefix":"ст.","Label":"ст. Анновка, Украина","LabelTail":"Украина","Value":"Анновка","Gid":"0","Lon":26.075277777778,"Lat":50.906944444444,"Exp":"2208064","Ecp":"0"},{"Prefix":"ст.","Label":"ст. Антонины, Украина","LabelTail":"Украина","Value":"Антонины","Gid":"0","Lon":26.864722222222,"Lat":49.810277777778,"Exp":"2200217","Ecp":"0"},{"Prefix":"ст.","Label":"ст. Антоновка, Украина","LabelTail":"Украина","Value":"Антоновка","Gid":"0","Lon":24.189444444444,"Lat":49.275,"Exp":"2209507","Ecp":"0"},{"Prefix":"ст.","Label":"ст. Антоновка, Украина","LabelTail":"Украина","Value":"Антоновка","Gid":"0","Lon":24.189444444444,"Lat":49.275,"Exp":"2218120","Ecp":"0"},{"Prefix":"ст.","Label":"ст. Антоновка, Украина","LabelTail":"Украина","Value":"Антоновка","Gid":"0","Lon":24.189444444444,"Lat":49.275,"Exp":"2208074","Ecp":"0"},{"Prefix":"ст.","Label":"ст. Антрацит, Украина","LabelTail":"Украина","Value":"Антрацит","Gid":"0","Lon":39.088611111111,"Lat":48.116388888889,"Exp":"2214430","Ecp":"0"},{"Prefix":"ст.","Label":"ст. Апостолово, Украина","LabelTail":"Украина","Value":"Апостолово","Gid":"0","Lon":33.708611111111,"Lat":47.661388888889,"Exp":"2210830","Ecp":"0"},{"Prefix":"ст.","Label":"ст. Арламовская Воля, Украина","LabelTail":"Украина","Value":"Арламовская Воля","Gid":"0","Lon":23.224444444444,"Lat":49.833055555556,"Exp":"2218184","Ecp":"0"},{"Prefix":"ст.","Label":"ст. Армянск, Украина","LabelTail":"Украина","Value":"Армянск","Gid":"0","Lon":33.690277777778,"Lat":46.113333333333,"Exp":"2210685","Ecp":"0"},{"Prefix":"ст.","Label":"ст. Ароматная, Украина","LabelTail":"Украина","Value":"Ароматная","Gid":"0","Lon":0.0,"Lat":0.0,"Exp":"2210767","Ecp":"0"},{"Prefix":"ст.","Label":"ст. Артемовка, Украина","LabelTail":"Украина","Value":"Артемовка","Gid":"0","Lon":0.0,"Lat":0.0,"Exp":"2205640","Ecp":"0"},{"Prefix":"ст.","Label":"ст. Артемовск 1, Украина","LabelTail":"Украина","Value":"Артемовск 1","Gid":"0","Lon":0.0,"Lat":0.0,"Exp":"2214254","Ecp":"0"},{"Prefix":"ст.","Label":"ст. Артемовск 2, Украина","LabelTail":"Украина","Value":"Артемовск 2","Gid":"0","Lon":0.0,"Lat":0.0,"Exp":"2214180","Ecp":"0"},{"Prefix":"ст.","Label":"ст. Арцыз, Украина","LabelTail":"Украина","Value":"Арцыз","Gid":"0","Lon":0.0,"Lat":0.0,"Exp":"2208490","Ecp":"0"},{"Prefix":"ст.","Label":"ст. Асланово, Украина","LabelTail":"Украина","Value":"Асланово","Gid":"0","Lon":37.580277777778,"Lat":47.245277777778,"Exp":"2214274","Ecp":"0"},{"Prefix":"ст.","Label":"ст. Ахтырка, Украина","LabelTail":"Украина","Value":"Ахтырка","Gid":"0","Lon":34.893888888889,"Lat":50.308611111111,"Exp":"2204890","Ecp":"0"},{"Prefix":"ст.","Label":"ст. Бабаковка, Украина","LabelTail":"Украина","Value":"Бабаковка","Gid":"0","Lon":34.139722222222,"Lat":51.182222222222,"Exp":"2201189","Ecp":"0"},{"Prefix":"ст.","Label":"ст. Бабариковская, Украина","LabelTail":"Украина","Value":"Бабариковская","Gid":"0","Lon":0.0,"Lat":0.0,"Exp":"2205642","Ecp":"0"},{"Prefix":"ст.","Label":"ст. Бабенково, Украина","LabelTail":"Украина","Value":"Бабенково","Gid":"0","Lon":35.125277777778,"Lat":45.095277777778,"Exp":"2204688","Ecp":"0"},{"Prefix":"ст.","Label":"ст. Бабичевский, Украина","LabelTail":"Украина","Value":"Бабичевский","Gid":"0","Lon":0.0,"Lat":0.0,"Exp":"2200703","Ecp":"0"},{"Prefix":"ст.","Label":"ст. Багерово, Украина","LabelTail":"Украина","Value":"Багерово","Gid":"0","Lon":36.292777777778,"Lat":45.372222222222,"Exp":"2210737","Ecp":"0"},{"Prefix":"ст.","Label":"ст. Баглаи, Украина","LabelTail":"Украина","Value":"Баглаи","Gid":"0","Lon":26.576944444444,"Lat":49.498611111111,"Exp":"2200365","Ecp":"0"},{"Prefix":"ст.","Label":"ст. Баглей, Украина","LabelTail":"Украина","Value":"Баглей","Gid":"0","Lon":0.0,"Lat":0.0,"Exp":"2210768","Ecp":"0"},{"Prefix":"ст.","Label":"ст. Бадовка, Украина","LabelTail":"Украина","Value":"Бадовка","Gid":"0","Lon":26.604166666667,"Lat":50.384722222222,"Exp":"2201238","Ecp":"0"},{"Prefix":"ст.","Label":"ст. База, Украина","LabelTail":"Украина","Value":"База","Gid":"0","Lon":0.0,"Lat":0.0,"Exp":"2204752","Ecp":"0"},{"Prefix":"ст.","Label":"ст. Байрак, Украина","LabelTail":"Украина","Value":"Байрак","Gid":"0","Lon":33.121666666667,"Lat":49.675,"Exp":"2214078","Ecp":"0"},{"Prefix":"ст.","Label":"ст. Бакировка, Украина","LabelTail":"Украина","Value":"Бакировка","Gid":"0","Lon":35.018611111111,"Lat":50.371388888889,"Exp":"2204509","Ecp":"0"},{"Prefix":"ст.","Label":"ст. Бакланово, Украина","LabelTail":"Украина","Value":"Бакланово","Gid":"0","Lon":32.050277777778,"Lat":51.055555555556,"Exp":"2200697","Ecp":"0"},{"Prefix":"ст.","Label":"ст. Бакшеевка, Украина","LabelTail":"Украина","Value":"Бакшеевка","Gid":"0","Lon":37.211388888889,"Lat":50.204444444444,"Exp":"2204394","Ecp":"0"},{"Prefix":"ст.","Label":"ст. Балабино, Украина","LabelTail":"Украина","Value":"Балабино","Gid":"0","Lon":35.216944444444,"Lat":47.747222222222,"Exp":"2210240","Ecp":"0"},{"Prefix":"ст.","Label":"ст. Балаклея, Украина","LabelTail":"Украина","Value":"Балаклея","Gid":"0","Lon":31.728055555556,"Lat":49.229444444444,"Exp":"2204467","Ecp":"0"},{"Prefix":"ст.","Label":"ст. Балин, Украина","LabelTail":"Украина","Value":"Балин","Gid":"0","Lon":26.677222222222,"Lat":48.877777777778,"Exp":"2200233","Ecp":"0"},{"Prefix":"ст.","Label":"ст. Балки, Украина","LabelTail":"Украина","Value":"Балки","Gid":"0","Lon":25.260555555556,"Lat":50.155,"Exp":"2204484","Ecp":"0"},{"Prefix":"ст.","Label":"ст. Баловка, Украина","LabelTail":"Украина","Value":"Баловка","Gid":"0","Lon":34.416388888889,"Lat":49.375,"Exp":"2210969","Ecp":"0"},{"Prefix":"ст.","Label":"ст. Баловное, Украина","LabelTail":"Украина","Value":"Баловное","Gid":"0","Lon":31.890555555556,"Lat":47.052777777778,"Exp":"2208512","Ecp":"0"},{"Prefix":"ст.","Label":"ст. Балта, Украина","LabelTail":"Украина","Value":"Балта","Gid":"0","Lon":29.620277777778,"Lat":47.936388888889,"Exp":"2208550","Ecp":"0"},{"Prefix":"ст.","Label":"ст. Бандурка, Украина","LabelTail":"Украина","Value":"Бандурка","Gid":"0","Lon":31.032222222222,"Lat":48.144166666667,"Exp":"2208421","Ecp":"0"},{"Prefix":"ст.","Label":"ст. Банилов, Украина","LabelTail":"Украина","Value":"Банилов","Gid":"0","Lon":25.343333333333,"Lat":48.358055555556,"Exp":"2218266","Ecp":"0"},{"Prefix":"ст.","Label":"ст. Бантышево, Украина","LabelTail":"Украина","Value":"Бантышево","Gid":"0","Lon":0.0,"Lat":0.0,"Exp":"2214049","Ecp":"0"},{"Prefix":"ст.","Label":"ст. Бар, Украина","LabelTail":"Украина","Value":"Бар","Gid":"0","Lon":23.476388888889,"Lat":49.777222222222,"Exp":"2200247","Ecp":"0"},{"Prefix":"ст.","Label":"ст. Барабой, Украина","LabelTail":"Украина","Value":"Барабой","Gid":"0","Lon":30.514722222222,"Lat":46.286944444444,"Exp":"2208467","Ecp":"0"},{"Prefix":"ст.","Label":"ст. Бараново, Украина","LabelTail":"Украина","Value":"Бараново","Gid":"0","Lon":30.409722222222,"Lat":46.936388888889,"Exp":"2204914","Ecp":"0"},{"Prefix":"ст.","Label":"ст. Баранье, Украина","LabelTail":"Украина","Value":"Баранье","Gid":"0","Lon":25.283055555556,"Lat":50.179444444444,"Exp":"2200292","Ecp":"0"},{"Prefix":"ст.","Label":"ст. Барвенково, Украина","LabelTail":"Украина","Value":"Барвенково","Gid":"0","Lon":37.028888888889,"Lat":48.906944444444,"Exp":"2214047","Ecp":"0"},{"Prefix":"ст.","Label":"ст. Барвиновка, Украина","LabelTail":"Украина","Value":"Барвиновка","Gid":"0","Lon":27.809166666667,"Lat":50.495833333333,"Exp":"2200786","Ecp":"0"},{"Prefix":"ст.","Label":"ст. Барвинок, Украина","LabelTail":"Украина","Value":"Барвинок","Gid":"0","Lon":22.35,"Lat":48.568055555556,"Exp":"2208121","Ecp":"0"},{"Prefix":"ст.","Label":"ст. Баркасово, Украина","LabelTail":"Украина","Value":"Баркасово","Gid":"0","Lon":22.490833333333,"Lat":48.366111111111,"Exp":"2218130","Ecp":"0"},{"Prefix":"ст.","Label":"ст. Баронская, Украина","LabelTail":"Украина","Value":"Баронская","Gid":"0","Lon":0.0,"Lat":0.0,"Exp":"2214171","Ecp":"0"},{"Prefix":"ст.","Label":"ст. Барышевка, Украина","LabelTail":"Украина","Value":"Барышевка","Gid":"0","Lon":31.325555555556,"Lat":50.364444444444,"Exp":"2200062","Ecp":"0"},{"Prefix":"ст.","Label":"ст. Баскаки, Украина","LabelTail":"Украина","Value":"Баскаки","Gid":"0","Lon":0.0,"Lat":0.0,"Exp":"2200350","Ecp":"0"},{"Prefix":"ст.","Label":"ст. Басов Кут, Украина","LabelTail":"Украина","Value":"Басов Кут","Gid":"0","Lon":0.0,"Lat":0.0,"Exp":"2218405","Ecp":"0"},{"Prefix":"ст.","Label":"ст. Басы, Украина","LabelTail":"Украина","Value":"Басы","Gid":"0","Lon":31.872777777778,"Lat":49.280277777778,"Exp":"2204499","Ecp":"0"},{"Prefix":"ст.","Label":"ст. Батево, Украина","LabelTail":"Украина","Value":"Батево","Gid":"0","Lon":0.0,"Lat":0.0,"Exp":"2218127","Ecp":"0"},{"Prefix":"ст.","Label":"ст. Батрадь, Украина","LabelTail":"Украина","Value":"Батрадь","Gid":"0","Lon":22.406944444444,"Lat":48.320555555556,"Exp":"2218475","Ecp":"0"},{"Prefix":"ст.","Label":"ст. Батуринская, Украина","LabelTail":"Украина","Value":"Батуринская","Gid":"0","Lon":0.0,"Lat":0.0,"Exp":"2210743","Ecp":"0"},{"Prefix":"ст.","Label":"ст. Батятыче, Украина","LabelTail":"Украина","Value":"Батятыче","Gid":"0","Lon":0.0,"Lat":0.0,"Exp":"2218573","Ecp":"0"},{"Prefix":"ст.","Label":"ст. Бахмач-Гомельский, Украина","LabelTail":"Украина","Value":"Бахмач-Гомельский","Gid":"0","Lon":0.0,"Lat":0.0,"Exp":"2200031","Ecp":"0"},{"Prefix":"ст.","Label":"ст. Бахмач-Киевский, Украина","LabelTail":"Украина","Value":"Бахмач-Киевский","Gid":"0","Lon":0.0,"Lat":0.0,"Exp":"2200032","Ecp":"0"},{"Prefix":"ст.","Label":"ст. Бахмач-Пассажирский, Украина","LabelTail":"Украина","Value":"Бахмач-Пассажирский","Gid":"0","Lon":0.0,"Lat":0.0,"Exp":"2200030","Ecp":"0"},{"Prefix":"ст.","Label":"ст. Бахмутовка, Украина","LabelTail":"Украина","Value":"Бахмутовка","Gid":"0","Lon":39.046111111111,"Lat":48.871388888889,"Exp":"2214151","Ecp":"0"},{"Prefix":"ст.","Label":"ст. Бахчисарай, Украина","LabelTail":"Украина","Value":"Бахчисарай","Gid":"0","Lon":33.853611111111,"Lat":44.752222222222,"Exp":"2210895","Ecp":"0"},{"Prefix":"ст.","Label":"ст. Баштанка, Украина","LabelTail":"Украина","Value":"Баштанка","Gid":"0","Lon":32.448055555556,"Lat":47.397777777778,"Exp":"2208122","Ecp":"0"},{"Prefix":"ст.","Label":"ст. Бедевля, Украина","LabelTail":"Украина","Value":"Бедевля","Gid":"0","Lon":23.663888888889,"Lat":48.003611111111,"Exp":"2218555","Ecp":"0"},{"Prefix":"ст.","Label":"ст. Бездрик, Украина","LabelTail":"Украина","Value":"Бездрик","Gid":"0","Lon":34.955833333333,"Lat":50.875555555556,"Exp":"2204946","Ecp":"0"},{"Prefix":"ст.","Label":"ст. Безлюдовка, Украина","LabelTail":"Украина","Value":"Безлюдовка","Gid":"0","Lon":36.298611111111,"Lat":49.870833333333,"Exp":"2204160","Ecp":"0"},{"Prefix":"ст.","Label":"ст. Безруковка, Украина","LabelTail":"Украина","Value":"Безруковка","Gid":"0","Lon":0.0,"Lat":0.0,"Exp":"2204685","Ecp":"0"},{"Prefix":"ст.","Label":"ст. Безручки, Украина","LabelTail":"Украина","Value":"Безручки","Gid":"0","Lon":34.613611111111,"Lat":49.517222222222,"Exp":"2204906","Ecp":"0"},{"Prefix":"ст.","Label":"ст. Беланы, Украина","LabelTail":"Украина","Value":"Беланы","Gid":"0","Lon":34.409166666667,"Lat":51.022222222222,"Exp":"2204604","Ecp":"0"},{"Prefix":"ст.","Label":"ст. Белая, Украина","LabelTail":"Украина","Value":"Белая","Gid":"0","Lon":25.579722222222,"Lat":49.585277777778,"Exp":"2218388","Ecp":"0"},{"Prefix":"ст.","Label":"ст. Белая Криница, Украина","LabelTail":"Украина","Value":"Белая Криница","Gid":"0","Lon":25.886944444444,"Lat":47.973888888889,"Exp":"2208521","Ecp":"0"},{"Prefix":"ст.","Label":"ст. Белая Церковь, Украина","LabelTail":"Украина","Value":"Белая Церковь","Gid":"0","Lon":23.9275,"Lat":47.950833333333,"Exp":"2200180","Ecp":"0"},{"Prefix":"ст.","Label":"ст. Белая Чертковская, Украина","LabelTail":"Украина","Value":"Белая Чертковская","Gid":"0","Lon":0.0,"Lat":0.0,"Exp":"2218156","Ecp":"0"},{"Prefix":"ст.","Label":"ст. Белгород-Днестровский, Украина","LabelTail":"Украина","Value":"Белгород-Днестровский","Gid":"0","Lon":30.345833333333,"Lat":46.191111111111,"Exp":"2208560","Ecp":"0"},{"Prefix":"ст.","Label":"ст. Белгородка, Украина","LabelTail":"Украина","Value":"Белгородка","Gid":"0","Lon":0.0,"Lat":0.0,"Exp":"2200148","Ecp":"0"},{"Prefix":"ст.","Label":"ст. Белецковка, Украина","LabelTail":"Украина","Value":"Белецковка","Gid":"0","Lon":33.373611111111,"Lat":48.991111111111,"Exp":"2204787","Ecp":"0"},{"Prefix":"ст.","Label":"ст. Белин, Украина","LabelTail":"Украина","Value":"Белин","Gid":"0","Lon":24.252777777778,"Lat":48.108055555556,"Exp":"2218508","Ecp":"0"},{"Prefix":"ст.","Label":"ст. Беличи, Украина","LabelTail":"Украина","Value":"Беличи","Gid":"0","Lon":22.888888888889,"Lat":49.444444444444,"Exp":"2200082","Ecp":"0"},{"Prefix":"ст.","Label":"ст. Белки, Украина","LabelTail":"Украина","Value":"Белки","Gid":"0","Lon":23.131111111111,"Lat":48.324444444444,"Exp":"2201265","Ecp":"0"},{"Prefix":"ст.","Label":"ст. Белобожница, Украина","LabelTail":"Украина","Value":"Белобожница","Gid":"0","Lon":25.675,"Lat":49.048888888889,"Exp":"2218239","Ecp":"0"},{"Prefix":"ст.","Label":"ст. Беловоды, Украина","LabelTail":"Украина","Value":"Беловоды","Gid":"0","Lon":34.968055555556,"Lat":51.175,"Exp":"2204537","Ecp":"0"},{"Prefix":"ст.","Label":"ст. Белогорье, Украина","LabelTail":"Украина","Value":"Белогорье","Gid":"0","Lon":26.395277777778,"Lat":50.003333333333,"Exp":"2200359","Ecp":"0"},{"Prefix":"ст.","Label":"ст. Белозерье, Украина","LabelTail":"Украина","Value":"Белозерье","Gid":"0","Lon":0.0,"Lat":0.0,"Exp":"2208341","Ecp":"0"},{"Prefix":"ст.","Label":"ст. Белокоровичи, Украина","LabelTail":"Украина","Value":"Белокоровичи","Gid":"0","Lon":28.015555555556,"Lat":51.106666666667,"Exp":"2200101","Ecp":"0"},{"Prefix":"ст.","Label":"ст. Белокуракино, Украина","LabelTail":"Украина","Value":"Белокуракино","Gid":"0","Lon":38.735277777778,"Lat":49.526388888889,"Exp":"2214375","Ecp":"0"},{"Prefix":"ст.","Label":"ст. Белополье, Украина","LabelTail":"Украина","Value":"Белополье","Gid":"0","Lon":28.869444444444,"Lat":49.845277777778,"Exp":"2204440","Ecp":"0"},{"Prefix":"ст.","Label":"ст. Белоселье, Украина","LabelTail":"Украина","Value":"Белоселье","Gid":"0","Lon":0.0,"Lat":0.0,"Exp":"2200695","Ecp":"0"},{"Prefix":"ст.","Label":"ст. Белоус, Украина","LabelTail":"Украина","Value":"Белоус","Gid":"0","Lon":0.0,"Lat":0.0,"Exp":"2201144","Ecp":"0"},{"Prefix":"ст.","Label":"ст. Белый Колодезь, Украина","LabelTail":"Украина","Value":"Белый Колодезь","Gid":"0","Lon":37.107777777778,"Lat":50.198611111111,"Exp":"2204393","Ecp":"0"},{"Prefix":"ст.","Label":"ст. Бельманка, Украина","LabelTail":"Украина","Value":"Бельманка","Gid":"0","Lon":36.6625,"Lat":47.244166666667,"Exp":"2210697","Ecp":"0"},{"Prefix":"ст.","Label":"ст. Беляевка, Украина","LabelTail":"Украина","Value":"Беляевка","Gid":"0","Lon":30.201388888889,"Lat":46.4825,"Exp":"2204172","Ecp":"0"},{"Prefix":"ст.","Label":"ст. Берда, Украина","LabelTail":"Украина","Value":"Берда","Gid":"0","Lon":0.0,"Lat":0.0,"Exp":"2210829","Ecp":"0"},{"Prefix":"ст.","Label":"ст. Бердичев, Украина","LabelTail":"Украина","Value":"Бердичев","Gid":"0","Lon":28.581388888889,"Lat":49.894166666667,"Exp":"2200120","Ecp":"0"},{"Prefix":"ст.","Label":"ст. Бердичев-Житомирский, Украина","LabelTail":"Украина","Value":"Бердичев-Житомирский","Gid":"0","Lon":0.0,"Lat":0.0,"Exp":"2200117","Ecp":"0"},{"Prefix":"ст.","Label":"ст. Бердянск, Украина","LabelTail":"Украина","Value":"Бердянск","Gid":"0","Lon":36.789444444444,"Lat":46.761111111111,"Exp":"2210690","Ecp":"0"},{"Prefix":"ст.","Label":"ст. Берегово, Украина","LabelTail":"Украина","Value":"Берегово","Gid":"0","Lon":22.645277777778,"Lat":48.205,"Exp":"2218129","Ecp":"0"},{"Prefix":"ст.","Label":"ст. Берегомет, Украина","LabelTail":"Украина","Value":"Берегомет","Gid":"0","Lon":25.330555555556,"Lat":48.171944444444,"Exp":"2218079","Ecp":"0"},{"Prefix":"ст.","Label":"ст. Бережаны, Украина","LabelTail":"Украина","Value":"Бережаны","Gid":"0","Lon":24.126944444444,"Lat":49.787777777778,"Exp":"2218643","Ecp":"0"},{"Prefix":"ст.","Label":"ст. Бережесть, Украина","LabelTail":"Украина","Value":"Бережесть","Gid":"0","Lon":28.949722222222,"Lat":51.466388888889,"Exp":"2200262","Ecp":"0"},{"Prefix":"ст.","Label":"ст. Березановка, Украина","LabelTail":"Украина","Value":"Березановка","Gid":"0","Lon":0.0,"Lat":0.0,"Exp":"2210968","Ecp":"0"},{"Prefix":"ст.","Label":"ст. Березань, Украина","LabelTail":"Украина","Value":"Березань","Gid":"0","Lon":30.43,"Lat":46.5675,"Exp":"2200061","Ecp":"0"},{"Prefix":"ст.","Label":"ст. Березино, Украина","LabelTail":"Украина","Value":"Березино","Gid":"0","Lon":29.116944444444,"Lat":50.751111111111,"Exp":"2208612","Ecp":"0"},{"Prefix":"ст.","Label":"ст. Березка, Украина","LabelTail":"Украина","Value":"Березка","Gid":"0","Lon":32.858055555556,"Lat":50.474722222222,"Exp":"2201282","Ecp":"0"},{"Prefix":"ст.","Label":"ст. Березнеговатая, Украина","LabelTail":"Украина","Value":"Березнеговатая","Gid":"0","Lon":0.0,"Lat":0.0,"Exp":"2208523","Ecp":"0"},{"Prefix":"ст.","Label":"ст. Березник, Украина","LabelTail":"Украина","Value":"Березник","Gid":"0","Lon":0.0,"Lat":0.0,"Exp":"2204671","Ecp":"0"},{"Prefix":"ст.","Label":"ст. Березовица-Остров, Украина","LabelTail":"Украина","Value":"Березовица-Остров","Gid":"0","Lon":0.0,"Lat":0.0,"Exp":"2218144","Ecp":"0"},{"Prefix":"ст.","Label":"ст. Березовка, Украина","LabelTail":"Украина","Value":"Березовка","Gid":"0","Lon":24.543888888889,"Lat":49.341111111111,"Exp":"2208473","Ecp":"0"},{"Prefix":"ст.","Label":"ст. Берека, Украина","LabelTail":"Украина","Value":"Берека","Gid":"0","Lon":36.19,"Lat":49.468888888889,"Exp":"2204969","Ecp":"0"},{"Prefix":"ст.","Label":"ст. Берестовая, Украина","LabelTail":"Украина","Value":"Берестовая","Gid":"0","Lon":0.0,"Lat":0.0,"Exp":"2204711","Ecp":"0"},{"Prefix":"ст.","Label":"ст. Берестовеньки, Украина","LabelTail":"Украина","Value":"Берестовеньки","Gid":"0","Lon":0.0,"Lat":0.0,"Exp":"2204481","Ecp":"0"},{"Prefix":"ст.","Label":"ст. Берлебаш, Украина","LabelTail":"Украина","Value":"Берлебаш","Gid":"0","Lon":0.0,"Lat":0.0,"Exp":"2219012","Ecp":"0"},{"Prefix":"ст.","Label":"ст. Бершадь, Украина","LabelTail":"Украина","Value":"Бершадь","Gid":"0","Lon":29.518888888889,"Lat":48.365833333333,"Exp":"2209511","Ecp":"0"},{"Prefix":"ст.","Label":"ст. Беседовщина, Украина","LabelTail":"Украина","Value":"Беседовщина","Gid":"0","Lon":32.511666666667,"Lat":50.1075,"Exp":"2204816","Ecp":"0"},{"Prefix":"ст.","Label":"ст. Бескит, Украина","LabelTail":"Украина","Value":"Бескит","Gid":"0","Lon":0.0,"Lat":0.0,"Exp":"2218959","Ecp":"0"},{"Prefix":"ст.","Label":"ст. Беспаловка, Украина","LabelTail":"Украина","Value":"Беспаловка","Gid":"0","Lon":36.155,"Lat":49.601111111111,"Exp":"2204471","Ecp":"0"},{"Prefix":"ст.","Label":"ст. Бехи, Украина","LabelTail":"Украина","Value":"Бехи","Gid":"0","Lon":28.694444444444,"Lat":51.017777777778,"Exp":"2200106","Ecp":"0"},{"Prefix":"ст.","Label":"ст. Бешкетово, Украина","LabelTail":"Украина","Value":"Бешкетово","Gid":"0","Lon":0.0,"Lat":0.0,"Exp":"2209338","Ecp":"0"},{"Prefix":"ст.","Label":"ст. Бильмачевка, Украина","LabelTail":"Украина","Value":"Бильмачевка","Gid":"0","Lon":0.0,"Lat":0.0,"Exp":"2204548","Ecp":"0"},{"Prefix":"ст.","Label":"ст. Бильче, Украина","LabelTail":"Украина","Value":"Бильче","Gid":"0","Lon":0.0,"Lat":0.0,"Exp":"2218084","Ecp":"0"},{"Prefix":"ст.","Label":"ст. Бирюки, Украина","LabelTail":"Украина","Value":"Бирюки","Gid":"0","Lon":30.286111111111,"Lat":49.731388888889,"Exp":"2201134","Ecp":"0"},{"Prefix":"ст.","Label":"ст. Бирюково, Украина","LabelTail":"Украина","Value":"Бирюково","Gid":"0","Lon":30.427222222222,"Lat":47.313888888889,"Exp":"2214303","Ecp":"0"},{"Prefix":"ст.","Label":"ст. Бисковичи, Украина","LabelTail":"Украина","Value":"Бисковичи","Gid":"0","Lon":23.164166666667,"Lat":49.544444444444,"Exp":"2218157","Ecp":"0"},{"Prefix":"ст.","Label":"ст. Благословение, Украина","LabelTail":"Украина","Value":"Благословение","Gid":"0","Lon":0.0,"Lat":0.0,"Exp":"2210020","Ecp":"0"},{"Prefix":"ст.","Label":"ст. Блакитное, Украина","LabelTail":"Украина","Value":"Блакитное","Gid":"0","Lon":27.748333333333,"Lat":48.755833333333,"Exp":"2208519","Ecp":"0"},{"Prefix":"ст.","Label":"ст. Близнецы, Украина","LabelTail":"Украина","Value":"Близнецы","Gid":"0","Lon":0.0,"Lat":0.0,"Exp":"2214043","Ecp":"0"},{"Prefix":"ст.","Label":"ст. Блок Пост 10 Км, Украина","LabelTail":"Украина","Value":"Блок Пост 10 Км","Gid":"0","Lon":0.0,"Lat":0.0,"Exp":"2214056","Ecp":"0"},{"Prefix":"ст.","Label":"ст. Блок Пост 112 Км, Украина","LabelTail":"Украина","Value":"Блок Пост 112 Км","Gid":"0","Lon":0.0,"Lat":0.0,"Exp":"2210976","Ecp":"0"},{"Prefix":"ст.","Label":"ст. Блок Пост 116 Км, Украина","LabelTail":"Украина","Value":"Блок Пост 116 Км","Gid":"0","Lon":0.0,"Lat":0.0,"Exp":"2210975","Ecp":"0"},{"Prefix":"ст.","Label":"ст. Блок Пост 1164 Км, Украина","LabelTail":"Украина","Value":"Блок Пост 1164 Км","Gid":"0","Lon":0.0,"Lat":0.0,"Exp":"2214042","Ecp":"0"},{"Prefix":"ст.","Label":"ст. Блок Пост 118 Км, Украина","LabelTail":"Украина","Value":"Блок Пост 118 Км","Gid":"0","Lon":0.0,"Lat":0.0,"Exp":"2210974","Ecp":"0"},{"Prefix":"ст.","Label":"ст. Блок Пост 134 Км, Украина","LabelTail":"Украина","Value":"Блок Пост 134 Км","Gid":"0","Lon":0.0,"Lat":0.0,"Exp":"2204654","Ecp":"0"},{"Prefix":"ст.","Label":"ст. Блок Пост 1437 Км, Украина","LabelTail":"Украина","Value":"Блок Пост 1437 Км","Gid":"0","Lon":0.0,"Lat":0.0,"Exp":"2209340","Ecp":"0"},{"Prefix":"ст.","Label":"ст. Блок Пост 154 Км, Украина","LabelTail":"Украина","Value":"Блок Пост 154 Км","Gid":"0","Lon":0.0,"Lat":0.0,"Exp":"2218378","Ecp":"0"},{"Prefix":"ст.","Label":"ст. Блок Пост 16 Км, Украина","LabelTail":"Украина","Value":"Блок Пост 16 Км","Gid":"0","Lon":0.0,"Lat":0.0,"Exp":"2214084","Ecp":"0"},{"Prefix":"ст.","Label":"ст. Блок Пост 160 Км, Украина","LabelTail":"Украина","Value":"Блок Пост 160 Км","Gid":"0","Lon":0.0,"Lat":0.0,"Exp":"2214085","Ecp":"0"},{"Prefix":"ст.","Label":"ст. Блок Пост 173 Км, Украина","LabelTail":"Украина","Value":"Блок Пост 173 Км","Gid":"0","Lon":0.0,"Lat":0.0,"Exp":"2200317","Ecp":"0"},{"Prefix":"ст.","Label":"ст. Блок Пост 252 Км, Украина","LabelTail":"Украина","Value":"Блок Пост 252 Км","Gid":"0","Lon":0.0,"Lat":0.0,"Exp":"2204647","Ecp":"0"},{"Prefix":"ст.","Label":"ст. Блок Пост 263 Км, Украина","LabelTail":"Украина","Value":"Блок Пост 263 Км","Gid":"0","Lon":0.0,"Lat":0.0,"Exp":"2218383","Ecp":"0"},{"Prefix":"ст.","Label":"ст. Блок Пост 6 Км, Украина","LabelTail":"Украина","Value":"Блок Пост 6 Км","Gid":"0","Lon":0.0,"Lat":0.0,"Exp":"2214069","Ecp":"0"},{"Prefix":"ст.","Label":"ст. Блок Пост 67 Км, Украина","LabelTail":"Украина","Value":"Блок Пост 67 Км","Gid":"0","Lon":0.0,"Lat":0.0,"Exp":"2218382","Ecp":"0"},{"Prefix":"ст.","Label":"ст. Блок Пост 98 Км, Украина","LabelTail":"Украина","Value":"Блок Пост 98 Км","Gid":"0","Lon":0.0,"Lat":0.0,"Exp":"2204052","Ecp":"0"},{"Prefix":"ст.","Label":"ст. Блотница, Украина","LabelTail":"Украина","Value":"Блотница","Gid":"0","Lon":0.0,"Lat":0.0,"Exp":"2204536","Ecp":"0"},{"Prefix":"ст.","Label":"ст. Блыдни, Украина","LabelTail":"Украина","Value":"Блыдни","Gid":"0","Lon":27.601388888889,"Lat":50.114722222222,"Exp":"2201267","Ecp":"0"},{"Prefix":"ст.","Label":"ст. Бобрик, Украина","LabelTail":"Украина","Value":"Бобрик","Gid":"0","Lon":29.071666666667,"Lat":50.374444444444,"Exp":"2201235","Ecp":"0"},{"Prefix":"ст.","Label":"ст. Бобринец, Украина","LabelTail":"Украина","Value":"Бобринец","Gid":"0","Lon":32.159444444444,"Lat":48.057222222222,"Exp":"2208132","Ecp":"0"},{"Prefix":"ст.","Label":"ст. Бобровицы, Украина","LabelTail":"Украина","Value":"Бобровицы","Gid":"0","Lon":0.0,"Lat":0.0,"Exp":"2200051","Ecp":"0"},{"Prefix":"ст.","Label":"ст. Бовшев, Украина","LabelTail":"Украина","Value":"Бовшев","Gid":"0","Lon":24.701944444444,"Lat":49.208055555556,"Exp":"2218330","Ecp":"0"},{"Prefix":"ст.","Label":"ст. Богачево, Украина","LabelTail":"Украина","Value":"Богачево","Gid":"0","Lon":29.803055555556,"Lat":47.137222222222,"Exp":"2208369","Ecp":"0"},{"Prefix":"ст.","Label":"ст. Богданка, Украина","LabelTail":"Украина","Value":"Богданка","Gid":"0","Lon":33.375,"Lat":51.868611111111,"Exp":"2201142","Ecp":"0"},{"Prefix":"ст.","Label":"ст. Богдановка, Украина","LabelTail":"Украина","Value":"Богдановка","Gid":"0","Lon":24.439722222222,"Lat":49.852222222222,"Exp":"2200331","Ecp":"0"},{"Prefix":"ст.","Label":"ст. Богдановка, Украина","LabelTail":"Украина","Value":"Богдановка","Gid":"0","Lon":24.439722222222,"Lat":49.852222222222,"Exp":"2201149","Ecp":"0"},{"Prefix":"ст.","Label":"ст. Богдановка-Каменка, Украина","LabelTail":"Украина","Value":"Богдановка-Каменка","Gid":"0","Lon":0.0,"Lat":0.0,"Exp":"2218980","Ecp":"0"},{"Prefix":"ст.","Label":"ст. Богдановцы, Украина","LabelTail":"Украина","Value":"Богдановцы","Gid":"0","Lon":27.151388888889,"Lat":49.375555555556,"Exp":"2200265","Ecp":"0"},{"Prefix":"ст.","Label":"ст. Богемка, Украина","LabelTail":"Украина","Value":"Богемка","Gid":"0","Lon":30.524444444444,"Lat":47.738055555556,"Exp":"2210320","Ecp":"0"},{"Prefix":"ст.","Label":"ст. Богодухов, Украина","LabelTail":"Украина","Value":"Богодухов","Gid":"0","Lon":35.521666666667,"Lat":50.160277777778,"Exp":"2204516","Ecp":"0"},{"Prefix":"ст.","Label":"ст. Богунский, Украина","LabelTail":"Украина","Value":"Богунский","Gid":"0","Lon":0.0,"Lat":0.0,"Exp":"2200128","Ecp":"0"},{"Prefix":"ст.","Label":"ст. Богуславец, Украина","LabelTail":"Украина","Value":"Богуславец","Gid":"0","Lon":32.145277777778,"Lat":49.701111111111,"Exp":"2209516","Ecp":"0"},{"Prefix":"ст.","Label":"ст. Богуславский, Украина","LabelTail":"Украина","Value":"Богуславский","Gid":"0","Lon":0.0,"Lat":0.0,"Exp":"2210772","Ecp":"0"},{"Prefix":"ст.","Label":"ст. Бодаква, Украина","LabelTail":"Украина","Value":"Бодаква","Gid":"0","Lon":33.419166666667,"Lat":50.301944444444,"Exp":"2204545","Ecp":"0"},{"Prefix":"ст.","Label":"ст. Боднаров, Украина","LabelTail":"Украина","Value":"Боднаров","Gid":"0","Lon":24.533055555556,"Lat":49.030833333333,"Exp":"2218196","Ecp":"0"},{"Prefix":"ст.","Label":"ст. Божедаровка, Украина","LabelTail":"Украина","Value":"Божедаровка","Gid":"0","Lon":34.099166666667,"Lat":48.386111111111,"Exp":"2210945","Ecp":"0"},{"Prefix":"ст.","Label":"ст. Божков, Украина","LabelTail":"Украина","Value":"Божков","Gid":"0","Lon":0.0,"Lat":0.0,"Exp":"2204531","Ecp":"0"},{"Prefix":"ст.","Label":"ст. Бойковщина, Украина","LabelTail":"Украина","Value":"Бойковщина","Gid":"0","Lon":32.248055555556,"Lat":49.9125,"Exp":"2209366","Ecp":"0"},{"Prefix":"ст.","Label":"ст. Болград, Украина","LabelTail":"Украина","Value":"Болград","Gid":"0","Lon":28.602777777778,"Lat":45.694166666667,"Exp":"2208301","Ecp":"0"},{"Prefix":"ст.","Label":"ст. Болехов, Украина","LabelTail":"Украина","Value":"Болехов","Gid":"0","Lon":23.856666666667,"Lat":49.069444444444,"Exp":"2218192","Ecp":"0"},{"Prefix":"ст.","Label":"ст. Большая Кахновка, Украина","LabelTail":"Украина","Value":"Большая Кахновка","Gid":"0","Lon":0.0,"Lat":0.0,"Exp":"2204999","Ecp":"0"},{"Prefix":"ст.","Label":"ст. Большие Копани, Украина","LabelTail":"Украина","Value":"Большие Копани","Gid":"0","Lon":0.0,"Lat":0.0,"Exp":"2208543","Ecp":"0"},{"Prefix":"ст.","Label":"ст. Большие Пузырьки, Украина","LabelTail":"Украина","Value":"Большие Пузырьки","Gid":"0","Lon":0.0,"Lat":0.0,"Exp":"2200216","Ecp":"0"},{"Prefix":"ст.","Label":"ст. Большой Токмак, Украина","LabelTail":"Украина","Value":"Большой Токмак","Gid":"0","Lon":0.0,"Lat":0.0,"Exp":"2210865","Ecp":"0"},{"Prefix":"ст.","Label":"ст. Большой Утлюг, Украина","LabelTail":"Украина","Value":"Большой Утлюг","Gid":"0","Lon":0.0,"Lat":0.0,"Exp":"2210243","Ecp":"0"},{"Prefix":"ст.","Label":"ст. Бондаревка, Украина","LabelTail":"Украина","Value":"Бондаревка","Gid":"0","Lon":28.229166666667,"Lat":50.898611111111,"Exp":"2200255","Ecp":"0"},{"Prefix":"ст.","Label":"ст. Боржава, Украина","LabelTail":"Украина","Value":"Боржава","Gid":"0","Lon":22.722222222222,"Lat":48.157222222222,"Exp":"2218140","Ecp":"0"},{"Prefix":"ст.","Label":"ст. Борисполь, Украина","LabelTail":"Украина","Value":"Борисполь","Gid":"0","Lon":30.950833333333,"Lat":50.351111111111,"Exp":"2200064","Ecp":"0"},{"Prefix":"ст.","Label":"ст. Борки, Украина","LabelTail":"Украина","Value":"Борки","Gid":"0","Lon":23.741388888889,"Lat":50.108055555556,"Exp":"2204218","Ecp":"0"},{"Prefix":"ст.","Label":"ст. Борки-Великие, Украина","LabelTail":"Украина","Value":"Борки-Великие","Gid":"0","Lon":0.0,"Lat":0.0,"Exp":"2218166","Ecp":"0"},{"Prefix":"ст.","Label":"ст. Боровская Южная, Украина","LabelTail":"Украина","Value":"Боровская Южная","Gid":"0","Lon":0.0,"Lat":0.0,"Exp":"2204801","Ecp":"0"},{"Prefix":"ст.","Label":"ст. Бородянка, Украина","LabelTail":"Украина","Value":"Бородянка","Gid":"0","Lon":29.925555555556,"Lat":50.646666666667,"Exp":"2200088","Ecp":"0"},{"Prefix":"ст.","Label":"ст. Боромля, Украина","LabelTail":"Украина","Value":"Боромля","Gid":"0","Lon":34.966944444444,"Lat":50.619444444444,"Exp":"2204507","Ecp":"0"},{"Prefix":"ст.","Label":"ст. Бортники, Украина","LabelTail":"Украина","Value":"Бортники","Gid":"0","Lon":24.293611111111,"Lat":49.349444444444,"Exp":"2218191","Ecp":"0"},{"Prefix":"ст.","Label":"ст. Боршевка, Украина","LabelTail":"Украина","Value":"Боршевка","Gid":"0","Lon":0.0,"Lat":0.0,"Exp":"2208605","Ecp":"0"},{"Prefix":"ст.","Label":"ст. Борщаговка, Украина","LabelTail":"Украина","Value":"Борщаговка","Gid":"0","Lon":29.537222222222,"Lat":49.486111111111,"Exp":"2201150","Ecp":"0"},{"Prefix":"ст.","Label":"ст. Борщаговка Техническая, Украина","LabelTail":"Украина","Value":"Борщаговка Техническая","Gid":"0","Lon":0.0,"Lat":0.0,"Exp":"2200409","Ecp":"0"},{"Prefix":"ст.","Label":"ст. Борщев, Украина","LabelTail":"Украина","Value":"Борщев","Gid":"0","Lon":0.0,"Lat":0.0,"Exp":"2218391","Ecp":"0"},{"Prefix":"ст.","Label":"ст. Борщи, Украина","LabelTail":"Украина","Value":"Борщи","Gid":"0","Lon":27.557777777778,"Lat":49.055555555556,"Exp":"2208441","Ecp":"0"},{"Prefix":"ст.","Label":"ст. Борщовичи, Украина","LabelTail":"Украина","Value":"Борщовичи","Gid":"0","Lon":24.264166666667,"Lat":49.865277777778,"Exp":"2218073","Ecp":"0"},{"Prefix":"ст.","Label":"ст. Борыничи, Украина","LabelTail":"Украина","Value":"Борыничи","Gid":"0","Lon":0.0,"Lat":0.0,"Exp":"2218097","Ecp":"0"},{"Prefix":"ст.","Label":"ст. Бояны, Украина","LabelTail":"Украина","Value":"Бояны","Gid":"0","Lon":26.126388888889,"Lat":48.266944444444,"Exp":"2218839","Ecp":"0"},{"Prefix":"ст.","Label":"ст. Боярка, Украина","LabelTail":"Украина","Value":"Боярка","Gid":"0","Lon":30.003888888889,"Lat":47.652222222222,"Exp":"2200140","Ecp":"0"},{"Prefix":"ст.","Label":"ст. Брагиновка, Украина","LabelTail":"Украина","Value":"Брагиновка","Gid":"0","Lon":36.350555555556,"Lat":48.481944444444,"Exp":"2210769","Ecp":"0"},{"Prefix":"ст.","Label":"ст. Браилов, Украина","LabelTail":"Украина","Value":"Браилов","Gid":"0","Lon":28.137777777778,"Lat":49.086666666667,"Exp":"2200243","Ecp":"0"},{"Prefix":"ст.","Label":"ст. Бранное Поле, Украина","LabelTail":"Украина","Value":"Бранное Поле","Gid":"0","Lon":0.0,"Lat":0.0,"Exp":"2210843","Ecp":"0"},{"Prefix":"ст.","Label":"ст. Браны, Украина","LabelTail":"Украина","Value":"Браны","Gid":"0","Lon":24.749722222222,"Lat":50.409444444444,"Exp":"2218324","Ecp":"0"},{"Prefix":"ст.","Label":"ст. Братешки, Украина","LabelTail":"Украина","Value":"Братешки","Gid":"0","Lon":34.030555555556,"Lat":49.682222222222,"Exp":"2204572","Ecp":"0"},{"Prefix":"ст.","Label":"ст. Братки, Украина","LabelTail":"Украина","Value":"Братки","Gid":"0","Lon":0.0,"Lat":0.0,"Exp":"2214417","Ecp":"0"},{"Prefix":"ст.","Label":"ст. Братковцы, Украина","LabelTail":"Украина","Value":"Братковцы","Gid":"0","Lon":23.836944444444,"Lat":49.220277777778,"Exp":"2219009","Ecp":"0"},{"Prefix":"ст.","Label":"ст. Братолюбовка, Украина","LabelTail":"Украина","Value":"Братолюбовка","Gid":"0","Lon":31.187222222222,"Lat":48.296666666667,"Exp":"2208531","Ecp":"0"},{"Prefix":"ст.","Label":"ст. Братское, Украина","LabelTail":"Украина","Value":"Братское","Gid":"0","Lon":31.573055555556,"Lat":47.864722222222,"Exp":"2210254","Ecp":"0"},{"Prefix":"ст.","Label":"ст. Братское Озеро, Украина","LabelTail":"Украина","Value":"Братское Озеро","Gid":"0","Lon":0.0,"Lat":0.0,"Exp":"2205604","Ecp":"0"},{"Prefix":"ст.","Label":"ст. Бригадный, Украина","LabelTail":"Украина","Value":"Бригадный","Gid":"0","Lon":0.0,"Lat":0.0,"Exp":"2201251","Ecp":"0"},{"Prefix":"ст.","Label":"ст. Брилевка, Украина","LabelTail":"Украина","Value":"Брилевка","Gid":"0","Lon":0.0,"Lat":0.0,"Exp":"2208544","Ecp":"0"},{"Prefix":"ст.","Label":"ст. Бровары, Украина","LabelTail":"Украина","Value":"Бровары","Gid":"0","Lon":25.457222222222,"Lat":48.963611111111,"Exp":"2200053","Ecp":"0"},{"Prefix":"ст.","Label":"ст. Бровки, Украина","LabelTail":"Украина","Value":"Бровки","Gid":"0","Lon":36.220277777778,"Lat":48.273055555556,"Exp":"2200152","Ecp":"0"},{"Prefix":"ст.","Label":"ст. Броды, Украина","LabelTail":"Украина","Value":"Броды","Gid":"0","Lon":24.527777777778,"Lat":51.768333333333,"Exp":"2218150","Ecp":"0"},{"Prefix":"ст.","Label":"ст. Брошнев, Украина","LabelTail":"Украина","Value":"Брошнев","Gid":"0","Lon":24.201388888889,"Lat":48.984166666667,"Exp":"2218287","Ecp":"0"},{"Prefix":"ст.","Label":"ст. Брусин, Украина","LabelTail":"Украина","Value":"Брусин","Gid":"0","Lon":0.0,"Lat":0.0,"Exp":"2214440","Ecp":"0"},{"Prefix":"ст.","Label":"ст. Брюловецкий, Украина","LabelTail":"Украина","Value":"Брюловецкий","Gid":"0","Lon":0.0,"Lat":0.0,"Exp":"2200015","Ecp":"0"},{"Prefix":"ст.","Label":"ст. Брюховичи, Украина","LabelTail":"Украина","Value":"Брюховичи","Gid":"0","Lon":23.946666666667,"Lat":49.9025,"Exp":"2218074","Ecp":"0"},{"Prefix":"ст.","Label":"ст. Бубнов, Украина","LabelTail":"Украина","Value":"Бубнов","Gid":"0","Lon":24.365,"Lat":50.732777777778,"Exp":"2218835","Ecp":"0"},{"Prefix":"ст.","Label":"ст. Буг, Украина","LabelTail":"Украина","Value":"Буг","Gid":"0","Lon":0.0,"Lat":0.0,"Exp":"2200794","Ecp":"0"},{"Prefix":"ст.","Label":"ст. Бугаз, Украина","LabelTail":"Украина","Value":"Бугаз","Gid":"0","Lon":0.0,"Lat":0.0,"Exp":"2208486","Ecp":"0"},{"Prefix":"ст.","Label":"ст. Буды, Украина","LabelTail":"Украина","Value":"Буды","Gid":"0","Lon":23.799166666667,"Lat":50.207222222222,"Exp":"2204904","Ecp":"0"},{"Prefix":"ст.","Label":"ст. Будьки, Украина","LabelTail":"Украина","Value":"Будьки","Gid":"0","Lon":28.201666666667,"Lat":48.958888888889,"Exp":"2200784","Ecp":"0"},{"Prefix":"ст.","Label":"ст. Бузовка, Украина","LabelTail":"Украина","Value":"Бузовка","Gid":"0","Lon":30.075833333333,"Lat":49.116388888889,"Exp":"2210776","Ecp":"0"},{"Prefix":"ст.","Label":"ст. Буйволовецкий, Украина","LabelTail":"Украина","Value":"Буйволовецкий","Gid":"0","Lon":0.0,"Lat":0.0,"Exp":"2200699","Ecp":"0"},{"Prefix":"ст.","Label":"ст. Букачевцы, Украина","LabelTail":"Украина","Value":"Букачевцы","Gid":"0","Lon":24.496111111111,"Lat":49.261944444444,"Exp":"2218445","Ecp":"0"},{"Prefix":"ст.","Label":"ст. Букино, Украина","LabelTail":"Украина","Value":"Букино","Gid":"0","Lon":37.388888888889,"Lat":49.131388888889,"Exp":"2204169","Ecp":"0"},{"Prefix":"ст.","Label":"ст. Буклевское, Украина","LabelTail":"Украина","Value":"Буклевское","Gid":"0","Lon":0.0,"Lat":0.0,"Exp":"2204637","Ecp":"0"},{"Prefix":"ст.","Label":"ст. Булавин, Украина","LabelTail":"Украина","Value":"Булавин","Gid":"0","Lon":0.0,"Lat":0.0,"Exp":"2214203","Ecp":"0"},{"Prefix":"ст.","Label":"ст. Бункерная, Украина","LabelTail":"Украина","Value":"Бункерная","Gid":"0","Lon":0.0,"Lat":0.0,"Exp":"2214107","Ecp":"0"},{"Prefix":"ст.","Label":"ст. Бунчужный, Украина","LabelTail":"Украина","Value":"Бунчужный","Gid":"0","Lon":0.0,"Lat":0.0,"Exp":"2214111","Ecp":"0"},{"Prefix":"ст.","Label":"ст. Бурбулатовская, Украина","LabelTail":"Украина","Value":"Бурбулатовская","Gid":"0","Lon":0.0,"Lat":0.0,"Exp":"2214516","Ecp":"0"},{"Prefix":"ст.","Label":"ст. Бурдюг, Украина","LabelTail":"Украина","Value":"Бурдюг","Gid":"0","Lon":26.891944444444,"Lat":48.481944444444,"Exp":"2218456","Ecp":"0"},{"Prefix":"ст.","Label":"ст. Бурлук, Украина","LabelTail":"Украина","Value":"Бурлук","Gid":"0","Lon":0.0,"Lat":0.0,"Exp":"2204397","Ecp":"0"},{"Prefix":"ст.","Label":"ст. Бурлуцкий, Украина","LabelTail":"Украина","Value":"Бурлуцкий","Gid":"0","Lon":0.0,"Lat":0.0,"Exp":"2204778","Ecp":"0"},{"Prefix":"ст.","Label":"ст. Бурты, Украина","LabelTail":"Украина","Value":"Бурты","Gid":"0","Lon":26.293611111111,"Lat":48.820555555556,"Exp":"2204599","Ecp":"0"},{"Prefix":"ст.","Label":"ст. Бурчацк, Украина","LabelTail":"Украина","Value":"Бурчацк","Gid":"0","Lon":0.0,"Lat":0.0,"Exp":"2210714","Ecp":"0"},{"Prefix":"ст.","Label":"ст. Бурштын, Украина","LabelTail":"Украина","Value":"Бурштын","Gid":"0","Lon":24.633888888889,"Lat":49.251666666667,"Exp":"2218204","Ecp":"0"},{"Prefix":"ст.","Label":"ст. Буценовка, Украина","LabelTail":"Украина","Value":"Буценовка","Gid":"0","Lon":0.0,"Lat":0.0,"Exp":"2209487","Ecp":"0"},{"Prefix":"ст.","Label":"ст. Буцнев, Украина","LabelTail":"Украина","Value":"Буцнев","Gid":"0","Lon":25.573888888889,"Lat":49.476666666667,"Exp":"2218225","Ecp":"0"},{"Prefix":"ст.","Label":"ст. Буча, Украина","LabelTail":"Украина","Value":"Буча","Gid":"0","Lon":30.074722222222,"Lat":50.44,"Exp":"2200084","Ecp":"0"},{"Prefix":"ст.","Label":"ст. Бучач, Украина","LabelTail":"Украина","Value":"Бучач","Gid":"0","Lon":25.39,"Lat":49.063055555556,"Exp":"2218397","Ecp":"0"},{"Prefix":"ст.","Label":"ст. Бушево, Украина","LabelTail":"Украина","Value":"Бушево","Gid":"0","Lon":30.601388888889,"Lat":49.639722222222,"Exp":"2201161","Ecp":"0"},{"Prefix":"ст.","Label":"ст. Бушинка, Украина","LabelTail":"Украина","Value":"Бушинка","Gid":"0","Lon":28.461388888889,"Lat":48.835,"Exp":"2201207","Ecp":"0"},{"Prefix":"ст.","Label":"ст. Буштино, Украина","LabelTail":"Украина","Value":"Буштино","Gid":"0","Lon":0.0,"Lat":0.0,"Exp":"2218160","Ecp":"0"},{"Prefix":"ст.","Label":"ст. Буялык, Украина","LabelTail":"Украина","Value":"Буялык","Gid":"0","Lon":0.0,"Lat":0.0,"Exp":"2208475","Ecp":"0"},{"Prefix":"ст.","Label":"ст. Быстра, Украина","LabelTail":"Украина","Value":"Быстра","Gid":"0","Lon":0.0,"Lat":0.0,"Exp":"2201287","Ecp":"0"},{"Prefix":"ст.","Label":"ст. Быстрица, Украина","LabelTail":"Украина","Value":"Быстрица","Gid":"0","Lon":22.83,"Lat":48.470277777778,"Exp":"2218281","Ecp":"0"},{"Prefix":"ст.","Label":"ст. Вагонзавод, Украина","LabelTail":"Украина","Value":"Вагонзавод","Gid":"0","Lon":0.0,"Lat":0.0,"Exp":"2204964","Ecp":"0"},{"Prefix":"ст.","Label":"ст. Вадим, Украина","LabelTail":"Украина","Value":"Вадим","Gid":"0","Lon":0.0,"Lat":0.0,"Exp":"2208546","Ecp":"0"},{"Prefix":"ст.","Label":"ст. Вадул Сирет, Украина","LabelTail":"Украина","Value":"Вадул Сирет","Gid":"0","Lon":0.0,"Lat":0.0,"Exp":"2218075","Ecp":"0"},{"Prefix":"ст.","Label":"ст. Вакуленцы, Украина","LabelTail":"Украина","Value":"Вакуленцы","Gid":"0","Lon":0.0,"Lat":0.0,"Exp":"2204662","Ecp":"0"},{"Prefix":"ст.","Label":"ст. Вакуленчук, Украина","LabelTail":"Украина","Value":"Вакуленчук","Gid":"0","Lon":28.302777777778,"Lat":49.941111111111,"Exp":"2200797","Ecp":"0"},{"Prefix":"ст.","Label":"ст. Валуйская, Украина","LabelTail":"Украина","Value":"Валуйская","Gid":"0","Lon":0.0,"Lat":0.0,"Exp":"2215265","Ecp":"0"},{"Prefix":"ст.","Label":"ст. Вальяновский, Украина","LabelTail":"Украина","Value":"Вальяновский","Gid":"0","Lon":0.0,"Lat":0.0,"Exp":"2214207","Ecp":"0"},{"Prefix":"ст.","Label":"ст. Ванчиковцы, Украина","LabelTail":"Украина","Value":"Ванчиковцы","Gid":"0","Lon":26.45,"Lat":48.22,"Exp":"2218233","Ecp":"0"},{"Prefix":"ст.","Label":"ст. Ваньковичи, Украина","LabelTail":"Украина","Value":"Ваньковичи","Gid":"0","Lon":23.300833333333,"Lat":49.633888888889,"Exp":"2218900","Ecp":"0"},{"Prefix":"ст.","Label":"ст. Вапнярка, Украина","LabelTail":"Украина","Value":"Вапнярка","Gid":"0","Lon":28.749722222222,"Lat":48.532222222222,"Exp":"2208430","Ecp":"0"},{"Prefix":"ст.","Label":"ст. Вапнярки, Украина","LabelTail":"Украина","Value":"Вапнярки","Gid":"0","Lon":28.669444444444,"Lat":48.588055555556,"Exp":"2218050","Ecp":"0"},{"Prefix":"ст.","Label":"ст. Варваровка, Украина","LabelTail":"Украина","Value":"Варваровка","Gid":"0","Lon":26.902222222222,"Lat":50.213055555556,"Exp":"2210311","Ecp":"0"},{"Prefix":"ст.","Label":"ст. Варваровский, Украина","LabelTail":"Украина","Value":"Варваровский","Gid":"0","Lon":0.0,"Lat":0.0,"Exp":"2204154","Ecp":"0"},{"Prefix":"ст.","Label":"ст. Вариводки, Украина","LabelTail":"Украина","Value":"Вариводки","Gid":"0","Lon":26.331388888889,"Lat":49.989166666667,"Exp":"2200358","Ecp":"0"},{"Prefix":"ст.","Label":"ст. Васильков, Украина","LabelTail":"Украина","Value":"Васильков","Gid":"0","Lon":26.13,"Lat":48.993055555556,"Exp":"2209519","Ecp":"0"},{"Prefix":"ст.","Label":"ст. Васильков 1, Украина","LabelTail":"Украина","Value":"Васильков 1","Gid":"0","Lon":0.0,"Lat":0.0,"Exp":"2200139","Ecp":"0"},{"Prefix":"ст.","Label":"ст. Васильков 2, Украина","LabelTail":"Украина","Value":"Васильков 2","Gid":"0","Lon":0.0,"Lat":0.0,"Exp":"2201147","Ecp":"0"},{"Prefix":"ст.","Label":"ст. Васильковка, Украина","LabelTail":"Украина","Value":"Васильковка","Gid":"0","Lon":36.030277777778,"Lat":48.210277777778,"Exp":"2210314","Ecp":"0"},{"Prefix":"ст.","Label":"ст. Васильковцы, Украина","LabelTail":"Украина","Value":"Васильковцы","Gid":"0","Lon":26.075,"Lat":49.092777777778,"Exp":"2218447","Ecp":"0"},{"Prefix":"ст.","Label":"ст. Васищево, Украина","LabelTail":"Украина","Value":"Васищево","Gid":"0","Lon":36.331111111111,"Lat":49.835277777778,"Exp":"2204191","Ecp":"0"},{"Prefix":"ст.","Label":"ст. Васищево, Украина","LabelTail":"Украина","Value":"Васищево","Gid":"0","Lon":36.331111111111,"Lat":49.835277777778,"Exp":"2204193","Ecp":"0"},{"Prefix":"ст.","Label":"ст. Васкауцы, Украина","LabelTail":"Украина","Value":"Васкауцы","Gid":"0","Lon":0.0,"Lat":0.0,"Exp":"2218458","Ecp":"0"},{"Prefix":"ст.","Label":"ст. Васьковичи, Украина","LabelTail":"Украина","Value":"Васьковичи","Gid":"0","Lon":28.708333333333,"Lat":51.084722222222,"Exp":"2200337","Ecp":"0"},{"Prefix":"ст.","Label":"ст. Васютинцы, Украина","LabelTail":"Украина","Value":"Васютинцы","Gid":"0","Lon":27.777777777778,"Lat":49.140555555556,"Exp":"2200700","Ecp":"0"},{"Prefix":"ст.","Label":"ст. Ватутино, Украина","LabelTail":"Украина","Value":"Ватутино","Gid":"0","Lon":31.061666666667,"Lat":49.017222222222,"Exp":"2200701","Ecp":"0"},{"Prefix":"ст.","Label":"ст. Веледники, Украина","LabelTail":"Украина","Value":"Веледники","Gid":"0","Lon":0.0,"Lat":0.0,"Exp":"2200078","Ecp":"0"},{"Prefix":"ст.","Label":"ст. Великая Бакта, Украина","LabelTail":"Украина","Value":"Великая Бакта","Gid":"0","Lon":22.663888888889,"Lat":48.16,"Exp":"2218309","Ecp":"0"},{"Prefix":"ст.","Label":"ст. Великая Бегань, Украина","LabelTail":"Украина","Value":"Великая Бегань","Gid":"0","Lon":0.0,"Lat":0.0,"Exp":"2218928","Ecp":"0"},{"Prefix":"ст.","Label":"ст. Великая Благовещенка, Украина","LabelTail":"Украина","Value":"Великая Благовещенка","Gid":"0","Lon":34.058333333333,"Lat":46.865833333333,"Exp":"2208316","Ecp":"0"},{"Prefix":"ст.","Label":"ст. Великая Загоровка, Украина","LabelTail":"Украина","Value":"Великая Загоровка","Gid":"0","Lon":32.498611111111,"Lat":51.176111111111,"Exp":"2201244","Ecp":"0"},{"Prefix":"ст.","Label":"ст. Великая Копаня, Украина","LabelTail":"Украина","Value":"Великая Копаня","Gid":"0","Lon":23.125833333333,"Lat":48.194166666667,"Exp":"2218362","Ecp":"0"},{"Prefix":"ст.","Label":"ст. Великая Слобода, Украина","LabelTail":"Украина","Value":"Великая Слобода","Gid":"0","Lon":0.0,"Lat":0.0,"Exp":"2200795","Ecp":"0"},{"Prefix":"ст.","Label":"ст. Великие Юначки, Украина","LabelTail":"Украина","Value":"Великие Юначки","Gid":"0","Lon":26.958055555556,"Lat":49.825833333333,"Exp":"2200372","Ecp":"0"},{"Prefix":"ст.","Label":"ст. Великий Березный, Украина","LabelTail":"Украина","Value":"Великий Березный","Gid":"0","Lon":0.0,"Lat":0.0,"Exp":"2218122","Ecp":"0"},{"Prefix":"ст.","Label":"ст. Великий Бычков, Украина","LabelTail":"Украина","Value":"Великий Бычков","Gid":"0","Lon":0.0,"Lat":0.0,"Exp":"2218453","Ecp":"0"},{"Prefix":"ст.","Label":"ст. Великий Кучуров, Украина","LabelTail":"Украина","Value":"Великий Кучуров","Gid":"0","Lon":25.894722222222,"Lat":48.198611111111,"Exp":"2218455","Ecp":"0"},{"Prefix":"ст.","Label":"ст. Великий Лес, Украина","LabelTail":"Украина","Value":"Великий Лес","Gid":"0","Lon":28.419722222222,"Lat":51.004444444444,"Exp":"2200343","Ecp":"0"},{"Prefix":"ст.","Label":"ст. Велико-Анадоль, Украина","LabelTail":"Украина","Value":"Велико-Анадоль","Gid":"0","Lon":0.0,"Lat":0.0,"Exp":"2214267","Ecp":"0"},{"Prefix":"ст.","Label":"ст. Венгеровка, Украина","LabelTail":"Украина","Value":"Венгеровка","Gid":"0","Lon":0.0,"Lat":0.0,"Exp":"2214118","Ecp":"0"},{"Prefix":"ст.","Label":"ст. Вендичаны, Украина","LabelTail":"Украина","Value":"Вендичаны","Gid":"0","Lon":27.788055555556,"Lat":48.609444444444,"Exp":"2200252","Ecp":"0"},{"Prefix":"ст.","Label":"ст. Венеславовка, Украина","LabelTail":"Украина","Value":"Венеславовка","Gid":"0","Lon":33.700555555556,"Lat":50.368055555556,"Exp":"2204543","Ecp":"0"},{"Prefix":"ст.","Label":"ст. Верба, Украина","LabelTail":"Украина","Value":"Верба","Gid":"0","Lon":24.343888888889,"Lat":50.934444444444,"Exp":"2218018","Ecp":"0"},{"Prefix":"ст.","Label":"ст. Вербка, Украина","LabelTail":"Украина","Value":"Вербка","Gid":"0","Lon":24.719166666667,"Lat":51.239444444444,"Exp":"2218832","Ecp":"0"},{"Prefix":"ст.","Label":"ст. Вербки, Украина","LabelTail":"Украина","Value":"Вербки","Gid":"0","Lon":33.231111111111,"Lat":49.475277777778,"Exp":"2204162","Ecp":"0"},{"Prefix":"ст.","Label":"ст. Вербовка, Украина","LabelTail":"Украина","Value":"Вербовка","Gid":"0","Lon":23.196388888889,"Lat":49.635277777778,"Exp":"2204800","Ecp":"0"},{"Prefix":"ст.","Label":"ст. Вербовцы, Украина","LabelTail":"Украина","Value":"Вербовцы","Gid":"0","Lon":25.381944444444,"Lat":48.623888888889,"Exp":"2200215","Ecp":"0"},{"Prefix":"ст.","Label":"ст. Вергунка, Украина","LabelTail":"Украина","Value":"Вергунка","Gid":"0","Lon":0.0,"Lat":0.0,"Exp":"2214162","Ecp":"0"},{"Prefix":"ст.","Label":"ст. Веренчанка, Украина","LabelTail":"Украина","Value":"Веренчанка","Gid":"0","Lon":25.744444444444,"Lat":48.544444444444,"Exp":"2218249","Ecp":"0"},{"Prefix":"ст.","Label":"ст. Вересочь, Украина","LabelTail":"Украина","Value":"Вересочь","Gid":"0","Lon":31.790555555556,"Lat":51.311111111111,"Exp":"2200045","Ecp":"0"},{"Prefix":"ст.","Label":"ст. Вересы, Украина","LabelTail":"Украина","Value":"Вересы","Gid":"0","Lon":28.761388888889,"Lat":50.337777777778,"Exp":"2201294","Ecp":"0"},{"Prefix":"ст.","Label":"ст. Веринский Завод, Украина","LabelTail":"Украина","Value":"Веринский Завод","Gid":"0","Lon":0.0,"Lat":0.0,"Exp":"2204066","Ecp":"0"},{"Prefix":"ст.","Label":"ст. Вернигородок, Украина","LabelTail":"Украина","Value":"Вернигородок","Gid":"0","Lon":28.887222222222,"Lat":49.7875,"Exp":"2200316","Ecp":"0"},{"Prefix":"ст.","Label":"ст. Веровка, Украина","LabelTail":"Украина","Value":"Веровка","Gid":"0","Lon":27.543055555556,"Lat":50.710277777778,"Exp":"2200122","Ecp":"0"},{"Prefix":"ст.","Label":"ст. Вертеевка, Украина","LabelTail":"Украина","Value":"Вертеевка","Gid":"0","Lon":0.0,"Lat":0.0,"Exp":"2200046","Ecp":"0"},{"Prefix":"ст.","Label":"ст. Верхнеднепровск, Украина","LabelTail":"Украина","Value":"Верхнеднепровск","Gid":"0","Lon":34.334722222222,"Lat":48.654166666667,"Exp":"2210695","Ecp":"0"},{"Prefix":"ст.","Label":"ст. Верхнезгарь, Украина","LabelTail":"Украина","Value":"Верхнезгарь","Gid":"0","Lon":0.0,"Lat":0.0,"Exp":"2209459","Ecp":"0"},{"Prefix":"ст.","Label":"ст. Верхнесадовая, Украина","LabelTail":"Украина","Value":"Верхнесадовая","Gid":"0","Lon":0.0,"Lat":0.0,"Exp":"2210724","Ecp":"0"},{"Prefix":"ст.","Label":"ст. Верхнесиневидное, Украина","LabelTail":"Украина","Value":"Верхнесиневидное","Gid":"0","Lon":0.0,"Lat":0.0,"Exp":"2218087","Ecp":"0"},{"Prefix":"ст.","Label":"ст. Верхние Гаи, Украина","LabelTail":"Украина","Value":"Верхние Гаи","Gid":"0","Lon":23.651944444444,"Lat":49.307777777778,"Exp":"2218133","Ecp":"0"},{"Prefix":"ст.","Label":"ст. Верхние Петровцы, Украина","LabelTail":"Украина","Value":"Верхние Петровцы","Gid":"0","Lon":25.693888888889,"Lat":48.058333333333,"Exp":"2218302","Ecp":"0"},{"Prefix":"ст.","Label":"ст. Верхний Лукавец, Украина","LabelTail":"Украина","Value":"Верхний Лукавец","Gid":"0","Lon":0.0,"Lat":0.0,"Exp":"2218298","Ecp":"0"},{"Prefix":"ст.","Label":"ст. Верхний Токмак 1, Украина","LabelTail":"Украина","Value":"Верхний Токмак 1","Gid":"0","Lon":0.0,"Lat":0.0,"Exp":"2210955","Ecp":"0"},{"Prefix":"ст.","Label":"ст. Верхний Участок, Украина","LabelTail":"Украина","Value":"Верхний Участок","Gid":"0","Lon":0.0,"Lat":0.0,"Exp":"2201187","Ecp":"0"},{"Prefix":"ст.","Label":"ст. Верхный Токмак 2, Украина","LabelTail":"Украина","Value":"Верхный Токмак 2","Gid":"0","Lon":0.0,"Lat":0.0,"Exp":"2210698","Ecp":"0"},{"Prefix":"ст.","Label":"ст. Верховцево, Украина","LabelTail":"Украина","Value":"Верховцево","Gid":"0","Lon":34.242222222222,"Lat":48.484166666667,"Exp":"2210815","Ecp":"0"},{"Prefix":"ст.","Label":"ст. Вершница, Украина","LabelTail":"Украина","Value":"Вершница","Gid":"0","Lon":27.715555555556,"Lat":50.637222222222,"Exp":"2200702","Ecp":"0"},{"Prefix":"ст.","Label":"ст. Веселиново, Украина","LabelTail":"Украина","Value":"Веселиново","Gid":"0","Lon":31.235555555556,"Lat":47.355555555556,"Exp":"2208396","Ecp":"0"},{"Prefix":"ст.","Label":"ст. Веселка, Украина","LabelTail":"Украина","Value":"Веселка","Gid":"0","Lon":27.923333333333,"Lat":49.953333333333,"Exp":"2200472","Ecp":"0"},{"Prefix":"ст.","Label":"ст. Веселый Кут, Украина","LabelTail":"Украина","Value":"Веселый Кут","Gid":"0","Lon":0.0,"Lat":0.0,"Exp":"2208458","Ecp":"0"},{"Prefix":"ст.","Label":"ст. Веселый Подол, Украина","LabelTail":"Украина","Value":"Веселый Подол","Gid":"0","Lon":0.0,"Lat":0.0,"Exp":"2204591","Ecp":"0"},{"Prefix":"ст.","Label":"ст. Вечерний Кут, Украина","LabelTail":"Украина","Value":"Вечерний Кут","Gid":"0","Lon":0.0,"Lat":0.0,"Exp":"2210285","Ecp":"0"},{"Prefix":"ст.","Label":"ст. Вещевой Рынок, Украина","LabelTail":"Украина","Value":"Вещевой Рынок","Gid":"0","Lon":0.0,"Lat":0.0,"Exp":"2200490","Ecp":"0"},{"Prefix":"ст.","Label":"ст. Взрывной, Украина","LabelTail":"Украина","Value":"Взрывной","Gid":"0","Lon":0.0,"Lat":0.0,"Exp":"2215377","Ecp":"0"},{"Prefix":"ст.","Label":"ст. Видень, Украина","LabelTail":"Украина","Value":"Видень","Gid":"0","Lon":28.376944444444,"Lat":50.961666666667,"Exp":"2200351","Ecp":"0"},{"Prefix":"ст.","Label":"ст. Видинов, Украина","LabelTail":"Украина","Value":"Видинов","Gid":"0","Lon":25.449722222222,"Lat":48.443055555556,"Exp":"2218224","Ecp":"0"},{"Prefix":"ст.","Label":"ст. Вижница, Украина","LabelTail":"Украина","Value":"Вижница","Gid":"0","Lon":25.189166666667,"Lat":48.248055555556,"Exp":"2218647","Ecp":"0"},{"Prefix":"ст.","Label":"ст. Виктория, Украина","LabelTail":"Украина","Value":"Виктория","Gid":"0","Lon":32.287222222222,"Lat":50.236666666667,"Exp":"2200238","Ecp":"0"},{"Prefix":"ст.","Label":"ст. Викторовка, Украина","LabelTail":"Украина","Value":"Викторовка","Gid":"0","Lon":25.190833333333,"Lat":49.442222222222,"Exp":"2209419","Ecp":"0"},{"Prefix":"ст.","Label":"ст. Вилок, Украина","LabelTail":"Украина","Value":"Вилок","Gid":"0","Lon":0.0,"Lat":0.0,"Exp":"2218275","Ecp":"0"},{"Prefix":"ст.","Label":"ст. Вилы, Украина","LabelTail":"Украина","Value":"Вилы","Gid":"0","Lon":0.0,"Lat":0.0,"Exp":"2204564","Ecp":"0"},{"Prefix":"ст.","Label":"ст. Вильхова, Украина","LabelTail":"Украина","Value":"Вильхова","Gid":"0","Lon":0.0,"Lat":0.0,"Exp":"2200325","Ecp":"0"},{"Prefix":"ст.","Label":"ст. Вильча, Украина","LabelTail":"Украина","Value":"Вильча","Gid":"0","Lon":29.431388888889,"Lat":51.359722222222,"Exp":"2200072","Ecp":"0"},{"Prefix":"ст.","Label":"ст. Вильшаница, Украина","LabelTail":"Украина","Value":"Вильшаница","Gid":"0","Lon":0.0,"Lat":0.0,"Exp":"2201026","Ecp":"0"},{"Prefix":"ст.","Label":"ст. Винница, Украина","LabelTail":"Украина","Value":"Винница","Gid":"0","Lon":28.468055555556,"Lat":49.231944444444,"Exp":"2200200","Ecp":"0"},{"Prefix":"ст.","Label":"ст. Винница Грузовая, Украина","LabelTail":"Украина","Value":"Винница Грузовая","Gid":"0","Lon":0.0,"Lat":0.0,"Exp":"2200318","Ecp":"0"},{"Prefix":"ст.","Label":"ст. Виноградники, Украина","LabelTail":"Украина","Value":"Виноградники","Gid":"0","Lon":0.0,"Lat":0.0,"Exp":"2214142","Ecp":"0"},{"Prefix":"ст.","Label":"ст. Виноградово-Закарпатск, Украина","LabelTail":"Украина","Value":"Виноградово-Закарпатск","Gid":"0","Lon":0.0,"Lat":0.0,"Exp":"2218170","Ecp":"0"},{"Prefix":"ст.","Label":"ст. Виревка, Украина","LabelTail":"Украина","Value":"Виревка","Gid":"0","Lon":0.0,"Lat":0.0,"Exp":"2200018","Ecp":"0"},{"Prefix":"ст.","Label":"ст. Виры, Украина","LabelTail":"Украина","Value":"Виры","Gid":"0","Lon":26.934722222222,"Lat":51.245555555556,"Exp":"2204494","Ecp":"0"},{"Prefix":"ст.","Label":"ст. Виска, Украина","LabelTail":"Украина","Value":"Виска","Gid":"0","Lon":0.0,"Lat":0.0,"Exp":"2208347","Ecp":"0"},{"Prefix":"ст.","Label":"ст. Вистова, Украина","LabelTail":"Украина","Value":"Вистова","Gid":"0","Lon":0.0,"Lat":0.0,"Exp":"2218284","Ecp":"0"},{"Prefix":"ст.","Label":"ст. Висунь, Украина","LabelTail":"Украина","Value":"Висунь","Gid":"0","Lon":32.869444444444,"Lat":47.979444444444,"Exp":"2210778","Ecp":"0"},{"Prefix":"ст.","Label":"ст. Витовцы, Украина","LabelTail":"Украина","Value":"Витовцы","Gid":"0","Lon":0.0,"Lat":0.0,"Exp":"2201213","Ecp":"0"},{"Prefix":"ст.","Label":"ст. Вишневецкое, Украина","LabelTail":"Украина","Value":"Вишневецкое","Gid":"0","Lon":0.0,"Lat":0.0,"Exp":"2210779","Ecp":"0"},{"Prefix":"ст.","Label":"ст. Вишневое, Украина","LabelTail":"Украина","Value":"Вишневое","Gid":"0","Lon":32.648611111111,"Lat":50.320833333333,"Exp":"2200006","Ecp":"0"},{"Prefix":"ст.","Label":"ст. Вишневый Сад, Украина","LabelTail":"Украина","Value":"Вишневый Сад","Gid":"0","Lon":0.0,"Lat":0.0,"Exp":"2200364","Ecp":"0"},{"Prefix":"ст.","Label":"ст. Вишняки, Украина","LabelTail":"Украина","Value":"Вишняки","Gid":"0","Lon":29.498333333333,"Lat":46.079444444444,"Exp":"2201275","Ecp":"0"},{"Prefix":"ст.","Label":"ст. Владимир-Волынский, Украина","LabelTail":"Украина","Value":"Владимир-Волынский","Gid":"0","Lon":24.319444444444,"Lat":50.8475,"Exp":"2218180","Ecp":"0"},{"Prefix":"ст.","Label":"ст. Владимирец, Украина","LabelTail":"Украина","Value":"Владимирец","Gid":"0","Lon":26.1375,"Lat":51.418611111111,"Exp":"2218387","Ecp":"0"},{"Prefix":"ст.","Label":"ст. Владимировка, Украина","LabelTail":"Украина","Value":"Владимировка","Gid":"0","Lon":24.390277777778,"Lat":50.83,"Exp":"2208358","Ecp":"0"},{"Prefix":"ст.","Label":"ст. Владиславовка, Украина","LabelTail":"Украина","Value":"Владиславовка","Gid":"0","Lon":25.7375,"Lat":50.530833333333,"Exp":"2210950","Ecp":"0"},{"Prefix":"ст.","Label":"ст. Власовка, Украина","LabelTail":"Украина","Value":"Власовка","Gid":"0","Lon":31.238611111111,"Lat":50.368888888889,"Exp":"2204478","Ecp":"0"},{"Prefix":"ст.","Label":"ст. Вовчий, Украина","LabelTail":"Украина","Value":"Вовчий","Gid":"0","Lon":0.0,"Lat":0.0,"Exp":"2218962","Ecp":"0"},{"Prefix":"ст.","Label":"ст. Водолага, Украина","LabelTail":"Украина","Value":"Водолага","Gid":"0","Lon":0.0,"Lat":0.0,"Exp":"2204475","Ecp":"0"},{"Prefix":"ст.","Label":"ст. Водопровод, Украина","LabelTail":"Украина","Value":"Водопровод","Gid":"0","Lon":0.0,"Lat":0.0,"Exp":"2215266","Ecp":"0"},{"Prefix":"ст.","Label":"ст. Водяная, Украина","LabelTail":"Украина","Value":"Водяная","Gid":"0","Lon":0.0,"Lat":0.0,"Exp":"2204525","Ecp":"0"},{"Prefix":"ст.","Label":"ст. Водяное, Украина","LabelTail":"Украина","Value":"Водяное","Gid":"0","Lon":29.856388888889,"Lat":47.135,"Exp":"2205625","Ecp":"0"},{"Prefix":"ст.","Label":"ст. Возляково, Украина","LabelTail":"Украина","Value":"Возляково","Gid":"0","Lon":28.295277777778,"Lat":51.213055555556,"Exp":"2201271","Ecp":"0"},{"Prefix":"ст.","Label":"ст. Вознесенск, Украина","LabelTail":"Украина","Value":"Вознесенск","Gid":"0","Lon":31.333888888889,"Lat":47.568055555556,"Exp":"2208420","Ecp":"0"},{"Prefix":"ст.","Label":"ст. Воинка, Украина","LabelTail":"Украина","Value":"Воинка","Gid":"0","Lon":0.0,"Lat":0.0,"Exp":"2210965","Ecp":"0"},{"Prefix":"ст.","Label":"ст. Войновка, Украина","LabelTail":"Украина","Value":"Войновка","Gid":"0","Lon":31.498055555556,"Lat":48.404166666667,"Exp":"2208332","Ecp":"0"},{"Prefix":"ст.","Label":"ст. Войтовцы, Украина","LabelTail":"Украина","Value":"Войтовцы","Gid":"0","Lon":26.444722222222,"Lat":49.493333333333,"Exp":"2200294","Ecp":"0"},{"Prefix":"ст.","Label":"ст. Войцехово, Украина","LabelTail":"Украина","Value":"Войцехово","Gid":"0","Lon":0.0,"Lat":0.0,"Exp":"2210982","Ecp":"0"},{"Prefix":"ст.","Label":"ст. Волица, Украина","LabelTail":"Украина","Value":"Волица","Gid":"0","Lon":0.0,"Lat":0.0,"Exp":"2200133","Ecp":"0"},{"Prefix":"ст.","Label":"ст. Волковцы, Украина","LabelTail":"Украина","Value":"Волковцы","Gid":"0","Lon":26.093611111111,"Lat":48.772777777778,"Exp":"2201158","Ecp":"0"},{"Prefix":"ст.","Label":"ст. Волноваха, Украина","LabelTail":"Украина","Value":"Волноваха","Gid":"0","Lon":37.499722222222,"Lat":47.598333333333,"Exp":"2214230","Ecp":"0"},{"Prefix":"ст.","Label":"ст. Воловец, Украина","LabelTail":"Украина","Value":"Воловец","Gid":"0","Lon":23.183888888889,"Lat":48.715277777778,"Exp":"2218145","Ecp":"0"},{"Prefix":"ст.","Label":"ст. Володиевцы, Украина","LabelTail":"Украина","Value":"Володиевцы","Gid":"0","Lon":27.741388888889,"Lat":48.858611111111,"Exp":"2200356","Ecp":"0"},{"Prefix":"ст.","Label":"ст. Володино, Украина","LabelTail":"Украина","Value":"Володино","Gid":"0","Lon":34.283611111111,"Lat":45.94,"Exp":"2214112","Ecp":"0"},{"Prefix":"ст.","Label":"ст. Волока, Украина","LabelTail":"Украина","Value":"Волока","Gid":"0","Lon":25.530277777778,"Lat":48.335833333333,"Exp":"2218293","Ecp":"0"},{"Prefix":"ст.","Label":"ст. Волосское, Украина","LabelTail":"Украина","Value":"Волосское","Gid":"0","Lon":27.473055555556,"Lat":49.2075,"Exp":"2200362","Ecp":"0"},{"Prefix":"ст.","Label":"ст. Волосянка, Украина","LabelTail":"Украина","Value":"Волосянка","Gid":"0","Lon":22.805,"Lat":48.976666666667,"Exp":"2218336","Ecp":"0"},{"Prefix":"ст.","Label":"ст. Волосянка-Закарпат., Украина","LabelTail":"Украина","Value":"Волосянка-Закарпат.","Gid":"0","Lon":0.0,"Lat":0.0,"Exp":"2218121","Ecp":"0"},{"Prefix":"ст.","Label":"ст. Волочиск, Украина","LabelTail":"Украина","Value":"Волочиск","Gid":"0","Lon":26.2125,"Lat":49.535833333333,"Exp":"2200268","Ecp":"0"},{"Prefix":"ст.","Label":"ст. Волошино, Украина","LabelTail":"Украина","Value":"Волошино","Gid":"0","Lon":28.231111111111,"Lat":51.158888888889,"Exp":"2201296","Ecp":"0"},{"Prefix":"ст.","Label":"ст. Волудринцы, Украина","LabelTail":"Украина","Value":"Волудринцы","Gid":"0","Lon":26.781666666667,"Lat":49.258611111111,"Exp":"2200468","Ecp":"0"},{"Prefix":"ст.","Label":"ст. Волфино, Украина","LabelTail":"Украина","Value":"Волфино","Gid":"0","Lon":34.458888888889,"Lat":51.238611111111,"Exp":"2200315","Ecp":"0"},{"Prefix":"ст.","Label":"ст. Волчанск, Украина","LabelTail":"Украина","Value":"Волчанск","Gid":"0","Lon":36.945277777778,"Lat":50.280555555556,"Exp":"2204392","Ecp":"0"},{"Prefix":"ст.","Label":"ст. Волчеярская, Украина","LabelTail":"Украина","Value":"Волчеярская","Gid":"0","Lon":0.0,"Lat":0.0,"Exp":"2214116","Ecp":"0"},{"Prefix":"ст.","Label":"ст. Волчковцы, Украина","LabelTail":"Украина","Value":"Волчковцы","Gid":"0","Lon":25.124722222222,"Lat":49.754444444444,"Exp":"2218838","Ecp":"0"},{"Prefix":"ст.","Label":"ст. Волынцево, Украина","LabelTail":"Украина","Value":"Волынцево","Gid":"0","Lon":34.041388888889,"Lat":51.254722222222,"Exp":"2214234","Ecp":"0"},{"Prefix":"ст.","Label":"ст. Вольногорск, Украина","LabelTail":"Украина","Value":"Вольногорск","Gid":"0","Lon":34.023333333333,"Lat":48.493611111111,"Exp":"2210674","Ecp":"0"},{"Prefix":"ст.","Label":"ст. Вольное, Украина","LabelTail":"Украина","Value":"Вольное","Gid":"0","Lon":25.104444444444,"Lat":48.989722222222,"Exp":"2210781","Ecp":"0"},{"Prefix":"ст.","Label":"ст. Вольнянск, Украина","LabelTail":"Украина","Value":"Вольнянск","Gid":"0","Lon":35.431666666667,"Lat":47.943333333333,"Exp":"2210683","Ecp":"0"},{"Prefix":"ст.","Label":"ст. Воля Холоевская, Украина","LabelTail":"Украина","Value":"Воля Холоевская","Gid":"0","Lon":0.0,"Lat":0.0,"Exp":"2218339","Ecp":"0"},{"Prefix":"ст.","Label":"ст. Ворзель, Украина","LabelTail":"Украина","Value":"Ворзель","Gid":"0","Lon":30.158888888889,"Lat":50.549722222222,"Exp":"2200085","Ecp":"0"},{"Prefix":"ст.","Label":"ст. Ворожба, Украина","LabelTail":"Украина","Value":"Ворожба","Gid":"0","Lon":34.231666666667,"Lat":51.175,"Exp":"2200050","Ecp":"0"},{"Prefix":"ст.","Label":"ст. Ворона, Украина","LabelTail":"Украина","Value":"Ворона","Gid":"0","Lon":24.780277777778,"Lat":51.126388888889,"Exp":"2218320","Ecp":"0"},{"Prefix":"ст.","Label":"ст. Вороненка, Украина","LabelTail":"Украина","Value":"Вороненка","Gid":"0","Lon":0.0,"Lat":0.0,"Exp":"2218216","Ecp":"0"},{"Prefix":"ст.","Label":"ст. Воронковцы, Украина","LabelTail":"Украина","Value":"Воронковцы","Gid":"0","Lon":27.133888888889,"Lat":49.705,"Exp":"2201233","Ecp":"0"},{"Prefix":"ст.","Label":"ст. Вороновицы, Украина","LabelTail":"Украина","Value":"Вороновицы","Gid":"0","Lon":0.0,"Lat":0.0,"Exp":"2200206","Ecp":"0"},{"Prefix":"ст.","Label":"ст. Ворохта, Украина","LabelTail":"Украина","Value":"Ворохта","Gid":"0","Lon":24.5625,"Lat":48.291944444444,"Exp":"2218217","Ecp":"0"},{"Prefix":"ст.","Label":"ст. Ворочево, Украина","LabelTail":"Украина","Value":"Ворочево","Gid":"0","Lon":0.0,"Lat":0.0,"Exp":"2218313","Ecp":"0"},{"Prefix":"ст.","Label":"ст. Ворскла, Украина","LabelTail":"Украина","Value":"Ворскла","Gid":"0","Lon":0.0,"Lat":0.0,"Exp":"2204619","Ecp":"0"},{"Prefix":"ст.","Label":"ст. Воршица, Украина","LabelTail":"Украина","Value":"Воршица","Gid":"0","Lon":0.0,"Lat":0.0,"Exp":"2200196","Ecp":"0"},{"Prefix":"ст.","Label":"ст. Воскобойня, Украина","LabelTail":"Украина","Value":"Воскобойня","Gid":"0","Lon":0.0,"Lat":0.0,"Exp":"2210302","Ecp":"0"},{"Prefix":"ст.","Label":"ст. Воскресенская, Украина","LabelTail":"Украина","Value":"Воскресенская","Gid":"0","Lon":0.0,"Lat":0.0,"Exp":"2214259","Ecp":"0"},{"Prefix":"ст.","Label":"ст. Восточный, Украина","LabelTail":"Украина","Value":"Восточный","Gid":"0","Lon":0.0,"Lat":0.0,"Exp":"2204866","Ecp":"0"},{"Prefix":"ст.","Label":"ст. Врадиевка, Украина","LabelTail":"Украина","Value":"Врадиевка","Gid":"0","Lon":30.589166666667,"Lat":47.859444444444,"Exp":"2208443","Ecp":"0"},{"Prefix":"ст.","Label":"ст. Врубовка, Украина","LabelTail":"Украина","Value":"Врубовка","Gid":"0","Lon":38.376388888889,"Lat":48.746111111111,"Exp":"2214173","Ecp":"0"},{"Prefix":"ст.","Label":"ст. Встречная Донецкая, Украина","LabelTail":"Украина","Value":"Встречная Донецкая","Gid":"0","Lon":0.0,"Lat":0.0,"Exp":"2214358","Ecp":"0"},{"Prefix":"ст.","Label":"ст. Встречный, Украина","LabelTail":"Украина","Value":"Встречный","Gid":"0","Lon":0.0,"Lat":0.0,"Exp":"2210839","Ecp":"0"},{"Prefix":"ст.","Label":"ст. Вузловое, Украина","LabelTail":"Украина","Value":"Вузловое","Gid":"0","Lon":0.0,"Lat":0.0,"Exp":"2218857","Ecp":"0"},{"Prefix":"ст.","Label":"ст. Вчерайше, Украина","LabelTail":"Украина","Value":"Вчерайше","Gid":"0","Lon":29.1475,"Lat":49.869722222222,"Exp":"2201231","Ecp":"0"},{"Prefix":"ст.","Label":"ст. Выбрановка, Украина","LabelTail":"Украина","Value":"Выбрановка","Gid":"0","Lon":24.215,"Lat":49.556944444444,"Exp":"2218096","Ecp":"0"},{"Prefix":"ст.","Label":"ст. Выгнанка, Украина","LabelTail":"Украина","Value":"Выгнанка","Gid":"0","Lon":24.278055555556,"Lat":51.291944444444,"Exp":"2218154","Ecp":"0"},{"Prefix":"ст.","Label":"ст. Выгов, Украина","LabelTail":"Украина","Value":"Выгов","Gid":"0","Lon":28.475277777778,"Lat":50.930833333333,"Exp":"2200119","Ecp":"0"},{"Prefix":"ст.","Label":"ст. Выгода, Украина","LabelTail":"Украина","Value":"Выгода","Gid":"0","Lon":23.9125,"Lat":48.935,"Exp":"2208433","Ecp":"0"},{"Prefix":"ст.","Label":"ст. Выдубичи-Трипольские, Украина","LabelTail":"Украина","Value":"Выдубичи-Трипольские","Gid":"0","Lon":0.0,"Lat":0.0,"Exp":"2200360","Ecp":"0"},{"Prefix":"ст.","Label":"ст. Выемка, Украина","LabelTail":"Украина","Value":"Выемка","Gid":"0","Lon":38.1475,"Lat":48.804722222222,"Exp":"2214129","Ecp":"0"},{"Prefix":"ст.","Label":"ст. Выжва, Украина","LabelTail":"Украина","Value":"Выжва","Gid":"0","Lon":0.0,"Lat":0.0,"Exp":"2218176","Ecp":"0"},{"Prefix":"ст.","Label":"ст. Высокое, Украина","LabelTail":"Украина","Value":"Высокое","Gid":"0","Lon":24.298333333333,"Lat":51.248055555556,"Exp":"2200397","Ecp":"0"},{"Prefix":"ст.","Label":"ст. Высокополье, Украина","LabelTail":"Украина","Value":"Высокополье","Gid":"0","Lon":33.528333333333,"Lat":47.493333333333,"Exp":"2208518","Ecp":"0"},{"Prefix":"ст.","Label":"ст. Высоцкое, Украина","LabelTail":"Украина","Value":"Высоцкое","Gid":"0","Lon":31.449444444444,"Lat":48.160555555556,"Exp":"2208097","Ecp":"0"},{"Prefix":"ст.","Label":"ст. Выстороп, Украина","LabelTail":"Украина","Value":"Выстороп","Gid":"0","Lon":0.0,"Lat":0.0,"Exp":"2204881","Ecp":"0"},{"Prefix":"ст.","Label":"ст. Выступовичи, Украина","LabelTail":"Украина","Value":"Выступовичи","Gid":"0","Lon":29.079166666667,"Lat":51.5625,"Exp":"2200261","Ecp":"0"},{"Prefix":"ст.","Label":"ст. Вышгород, Украина","LabelTail":"Украина","Value":"Вышгород","Gid":"0","Lon":30.485,"Lat":50.582222222222,"Exp":"2200470","Ecp":"0"},{"Prefix":"ст.","Label":"ст. Вышгородок, Украина","LabelTail":"Украина","Value":"Вышгородок","Gid":"0","Lon":25.968611111111,"Lat":49.768611111111,"Exp":"2218241","Ecp":"0"},{"Prefix":"ст.","Label":"ст. Вышгородская, Украина","LabelTail":"Украина","Value":"Вышгородская","Gid":"0","Lon":0.0,"Lat":0.0,"Exp":"2201170","Ecp":"0"},{"Prefix":"ст.","Label":"ст. Вышковцы, Украина","LabelTail":"Украина","Value":"Вышковцы","Gid":"0","Lon":28.827222222222,"Lat":48.821944444444,"Exp":"2218268","Ecp":"0"},{"Prefix":"ст.","Label":"ст. Вязовое, Украина","LabelTail":"Украина","Value":"Вязовое","Gid":"0","Lon":33.371666666667,"Lat":51.211388888889,"Exp":"2201274","Ecp":"0"},{"Prefix":"ст.","Label":"ст. Гавриловка, Украина","LabelTail":"Украина","Value":"Гавриловка","Gid":"0","Lon":24.732222222222,"Lat":48.693888888889,"Exp":"2214045","Ecp":"0"},{"Prefix":"ст.","Label":"ст. Гавриши, Украина","LabelTail":"Украина","Value":"Гавриши","Gid":"0","Lon":35.549444444444,"Lat":50.091111111111,"Exp":"2204176","Ecp":"0"},{"Prefix":"ст.","Label":"ст. Гадзинка, Украина","LabelTail":"Украина","Value":"Гадзинка","Gid":"0","Lon":28.825,"Lat":50.303055555556,"Exp":"2201264","Ecp":"0"},{"Prefix":"ст.","Label":"ст. Гадяч, Украина","LabelTail":"Украина","Value":"Гадяч","Gid":"0","Lon":33.994722222222,"Lat":50.370277777778,"Exp":"2204544","Ecp":"0"},{"Prefix":"ст.","Label":"ст. Газовое, Украина","LabelTail":"Украина","Value":"Газовое","Gid":"0","Lon":35.748055555556,"Lat":50.006944444444,"Exp":"2204636","Ecp":"0"},{"Prefix":"ст.","Label":"ст. Гай, Украина","LabelTail":"Украина","Value":"Гай","Gid":"0","Lon":0.0,"Lat":0.0,"Exp":"2201174","Ecp":"0"},{"Prefix":"ст.","Label":"ст. Гайворон, Украина","LabelTail":"Украина","Value":"Гайворон","Gid":"0","Lon":29.831944444444,"Lat":49.574166666667,"Exp":"2208090","Ecp":"0"},{"Prefix":"ст.","Label":"ст. Гайсин, Украина","LabelTail":"Украина","Value":"Гайсин","Gid":"0","Lon":29.386388888889,"Lat":48.812777777778,"Exp":"2200213","Ecp":"0"},{"Prefix":"ст.","Label":"ст. Гайчур, Украина","LabelTail":"Украина","Value":"Гайчур","Gid":"0","Lon":0.0,"Lat":0.0,"Exp":"2210704","Ecp":"0"},{"Prefix":"ст.","Label":"ст. Галагановка, Украина","LabelTail":"Украина","Value":"Галагановка","Gid":"0","Lon":32.7275,"Lat":49.055,"Exp":"2208527","Ecp":"0"},{"Prefix":"ст.","Label":"ст. Галайбино, Украина","LabelTail":"Украина","Value":"Галайбино","Gid":"0","Lon":32.576111111111,"Lat":51.387777777778,"Exp":"2200281","Ecp":"0"},{"Prefix":"ст.","Label":"ст. Галещина, Украина","LabelTail":"Украина","Value":"Галещина","Gid":"0","Lon":0.0,"Lat":0.0,"Exp":"2204605","Ecp":"0"},{"Prefix":"ст.","Label":"ст. Галино, Украина","LabelTail":"Украина","Value":"Галино","Gid":"0","Lon":0.0,"Lat":0.0,"Exp":"2201035","Ecp":"0"},{"Prefix":"ст.","Label":"ст. Галиновка, Украина","LabelTail":"Украина","Value":"Галиновка","Gid":"0","Lon":24.511111111111,"Lat":50.881388888889,"Exp":"2200346","Ecp":"0"},{"Prefix":"ст.","Label":"ст. Галич, Украина","LabelTail":"Украина","Value":"Галич","Gid":"0","Lon":24.73,"Lat":49.123333333333,"Exp":"2218206","Ecp":"0"},{"Prefix":"ст.","Label":"ст. Галичины, Украина","LabelTail":"Украина","Value":"Галичины","Gid":"0","Lon":0.0,"Lat":0.0,"Exp":"2218384","Ecp":"0"},{"Prefix":"ст.","Label":"ст. Галка, Украина","LabelTail":"Украина","Value":"Галка","Gid":"0","Lon":32.945555555556,"Lat":50.641388888889,"Exp":"2204556","Ecp":"0"},{"Prefix":"ст.","Label":"ст. Гановка, Украина","LabelTail":"Украина","Value":"Гановка","Gid":"0","Lon":24.480555555556,"Lat":50.528333333333,"Exp":"2204607","Ecp":"0"},{"Prefix":"ст.","Label":"ст. Ганусино, Украина","LabelTail":"Украина","Value":"Ганусино","Gid":"0","Lon":0.0,"Lat":0.0,"Exp":"2200799","Ecp":"0"},{"Prefix":"ст.","Label":"ст. Гарбузовка, Украина","LabelTail":"Украина","Value":"Гарбузовка","Gid":"0","Lon":34.165,"Lat":49.086944444444,"Exp":"2204883","Ecp":"0"},{"Prefix":"ст.","Label":"ст. Гарбузовка, Украина","LabelTail":"Украина","Value":"Гарбузовка","Gid":"0","Lon":34.165,"Lat":49.086944444444,"Exp":"2204658","Ecp":"0"},{"Prefix":"ст.","Label":"ст. Гарнышевка, Украина","LabelTail":"Украина","Value":"Гарнышевка","Gid":"0","Lon":26.336388888889,"Lat":49.531944444444,"Exp":"2201253","Ecp":"0"},{"Prefix":"ст.","Label":"ст. Гаршишевский, Украина","LabelTail":"Украина","Value":"Гаршишевский","Gid":"0","Lon":0.0,"Lat":0.0,"Exp":"2200324","Ecp":"0"},{"Prefix":"ст.","Label":"ст. Гвоздец, Украина","LabelTail":"Украина","Value":"Гвоздец","Gid":"0","Lon":22.928888888889,"Lat":49.308611111111,"Exp":"2218242","Ecp":"0"},{"Prefix":"ст.","Label":"ст. Гейковка, Украина","LabelTail":"Украина","Value":"Гейковка","Gid":"0","Lon":33.071111111111,"Lat":47.93,"Exp":"2210825","Ecp":"0"},{"Prefix":"ст.","Label":"ст. Геническ, Украина","LabelTail":"Украина","Value":"Геническ","Gid":"0","Lon":34.789444444444,"Lat":46.168333333333,"Exp":"2210833","Ecp":"0"},{"Prefix":"ст.","Label":"ст. Генриховка, Украина","LabelTail":"Украина","Value":"Генриховка","Gid":"0","Lon":0.0,"Lat":0.0,"Exp":"2208133","Ecp":"0"},{"Prefix":"ст.","Label":"ст. Геологический, Украина","LabelTail":"Украина","Value":"Геологический","Gid":"0","Lon":0.0,"Lat":0.0,"Exp":"2208038","Ecp":"0"},{"Prefix":"ст.","Label":"ст. Гермаковка, Украина","LabelTail":"Украина","Value":"Гермаковка","Gid":"0","Lon":26.171111111111,"Lat":48.688333333333,"Exp":"2218392","Ecp":"0"},{"Prefix":"ст.","Label":"ст. Герсевановский, Украина","LabelTail":"Украина","Value":"Герсевановский","Gid":"0","Lon":0.0,"Lat":0.0,"Exp":"2204183","Ecp":"0"},{"Prefix":"ст.","Label":"ст. Гинеевка, Украина","LabelTail":"Украина","Value":"Гинеевка","Gid":"0","Lon":0.0,"Lat":0.0,"Exp":"2204810","Ecp":"0"},{"Prefix":"ст.","Label":"ст. Гирне, Украина","LabelTail":"Украина","Value":"Гирне","Gid":"0","Lon":0.0,"Lat":0.0,"Exp":"2218035","Ecp":"0"},{"Prefix":"ст.","Label":"ст. Главаны, Украина","LabelTail":"Украина","Value":"Главаны","Gid":"0","Lon":0.0,"Lat":0.0,"Exp":"2208494","Ecp":"0"},{"Prefix":"ст.","Label":"ст. Глафировка, Украина","LabelTail":"Украина","Value":"Глафировка","Gid":"0","Lon":39.301666666667,"Lat":48.393055555556,"Exp":"2214175","Ecp":"0"},{"Prefix":"ст.","Label":"ст. Глебовичи, Украина","LabelTail":"Украина","Value":"Глебовичи","Gid":"0","Lon":24.434444444444,"Lat":49.6225,"Exp":"2218094","Ecp":"0"},{"Prefix":"ст.","Label":"ст. Глеваха, Украина","LabelTail":"Украина","Value":"Глеваха","Gid":"0","Lon":30.305833333333,"Lat":50.259722222222,"Exp":"2201145","Ecp":"0"},{"Prefix":"ст.","Label":"ст. Глиненка, Украина","LabelTail":"Украина","Value":"Глиненка","Gid":"0","Lon":31.133055555556,"Lat":51.815277777778,"Exp":"2201225","Ecp":"0"},{"Prefix":"ст.","Label":"ст. Глинна Навария, Украина","LabelTail":"Украина","Value":"Глинна Навария","Gid":"0","Lon":0.0,"Lat":0.0,"Exp":"2218656","Ecp":"0"},{"Prefix":"ст.","Label":"ст. Глинск, Украина","LabelTail":"Украина","Value":"Глинск","Gid":"0","Lon":23.909444444444,"Lat":50.061944444444,"Exp":"2218327","Ecp":"0"},{"Prefix":"ст.","Label":"ст. Глиняная, Украина","LabelTail":"Украина","Value":"Глиняная","Gid":"0","Lon":0.0,"Lat":0.0,"Exp":"2208419","Ecp":"0"},{"Prefix":"ст.","Label":"ст. Глобино, Украина","LabelTail":"Украина","Value":"Глобино","Gid":"0","Lon":33.250833333333,"Lat":49.391944444444,"Exp":"2204592","Ecp":"0"},{"Prefix":"ст.","Label":"ст. Глубокаябуковинская, Украина","LabelTail":"Украина","Value":"Глубокаябуковинская","Gid":"0","Lon":0.0,"Lat":0.0,"Exp":"2218263","Ecp":"0"},{"Prefix":"ст.","Label":"ст. Глубочек-Великий, Украина","LabelTail":"Украина","Value":"Глубочек-Великий","Gid":"0","Lon":0.0,"Lat":0.0,"Exp":"2218143","Ecp":"0"},{"Prefix":"ст.","Label":"ст. Глухов, Украина","LabelTail":"Украина","Value":"Глухов","Gid":"0","Lon":24.121111111111,"Lat":50.371111111111,"Exp":"2200021","Ecp":"0"},{"Prefix":"ст.","Label":"ст. Глуховцы, Украина","LabelTail":"Украина","Value":"Глуховцы","Gid":"0","Lon":28.723055555556,"Lat":49.803055555556,"Exp":"2200284","Ecp":"0"},{"Prefix":"ст.","Label":"ст. Глушковка, Украина","LabelTail":"Украина","Value":"Глушковка","Gid":"0","Lon":37.705833333333,"Lat":49.588888888889,"Exp":"2204779","Ecp":"0"},{"Prefix":"ст.","Label":"ст. Глыбное, Украина","LabelTail":"Украина","Value":"Глыбное","Gid":"0","Lon":35.081111111111,"Lat":50.827777777778,"Exp":"2204884","Ecp":"0"},{"Prefix":"ст.","Label":"ст. Гнаденталь, Украина","LabelTail":"Украина","Value":"Гнаденталь","Gid":"0","Lon":0.0,"Lat":0.0,"Exp":"2209493","Ecp":"0"},{"Prefix":"ст.","Label":"ст. Гнездычев, Украина","LabelTail":"Украина","Value":"Гнездычев","Gid":"0","Lon":24.102222222222,"Lat":49.329722222222,"Exp":"2218101","Ecp":"0"},{"Prefix":"ст.","Label":"ст. Гнивань, Украина","LabelTail":"Украина","Value":"Гнивань","Gid":"0","Lon":28.338055555556,"Lat":49.093611111111,"Exp":"2200242","Ecp":"0"},{"Prefix":"ст.","Label":"ст. Гнидава, Украина","LabelTail":"Украина","Value":"Гнидава","Gid":"0","Lon":25.826944444444,"Lat":49.844166666667,"Exp":"2218056","Ecp":"0"},{"Prefix":"ст.","Label":"ст. Гнилица, Украина","LabelTail":"Украина","Value":"Гнилица","Gid":"0","Lon":34.679444444444,"Lat":50.284722222222,"Exp":"2205645","Ecp":"0"},{"Prefix":"ст.","Label":"ст. Говилов, Украина","LabelTail":"Украина","Value":"Говилов","Gid":"0","Lon":0.0,"Lat":0.0,"Exp":"2218358","Ecp":"0"},{"Prefix":"ст.","Label":"ст. Гоголево, Украина","LabelTail":"Украина","Value":"Гоголево","Gid":"0","Lon":33.8225,"Lat":49.916388888889,"Exp":"2204567","Ecp":"0"},{"Prefix":"ст.","Label":"ст. Годы-Турка, Украина","LabelTail":"Украина","Value":"Годы-Турка","Gid":"0","Lon":0.0,"Lat":0.0,"Exp":"2218202","Ecp":"0"},{"Prefix":"ст.","Label":"ст. Годынковцы, Украина","LabelTail":"Украина","Value":"Годынковцы","Gid":"0","Lon":0.0,"Lat":0.0,"Exp":"2218153","Ecp":"0"},{"Prefix":"ст.","Label":"ст. Голендры, Украина","LabelTail":"Украина","Value":"Голендры","Gid":"0","Lon":28.72,"Lat":49.566111111111,"Exp":"2200194","Ecp":"0"},{"Prefix":"ст.","Label":"ст. Голобы, Украина","LabelTail":"Украина","Value":"Голобы","Gid":"0","Lon":25.016944444444,"Lat":51.088055555556,"Exp":"2218047","Ecp":"0"},{"Prefix":"ст.","Label":"ст. Голованевск, Украина","LabelTail":"Украина","Value":"Голованевск","Gid":"0","Lon":30.400555555556,"Lat":48.361111111111,"Exp":"2209482","Ecp":"0"},{"Prefix":"ст.","Label":"ст. Головач, Украина","LabelTail":"Украина","Value":"Головач","Gid":"0","Lon":34.598055555556,"Lat":49.47,"Exp":"2204616","Ecp":"0"},{"Prefix":"ст.","Label":"ст. Головачанская, Украина","LabelTail":"Украина","Value":"Головачанская","Gid":"0","Lon":0.0,"Lat":0.0,"Exp":"2205601","Ecp":"0"},{"Prefix":"ст.","Label":"ст. Головашевка, Украина","LabelTail":"Украина","Value":"Головашевка","Gid":"0","Lon":34.553055555556,"Lat":50.970833333333,"Exp":"2204496","Ecp":"0"},{"Prefix":"ст.","Label":"ст. Головки, Украина","LabelTail":"Украина","Value":"Головки","Gid":"0","Lon":29.129444444444,"Lat":50.846388888889,"Exp":"2200094","Ecp":"0"},{"Prefix":"ст.","Label":"ст. Голосков, Украина","LabelTail":"Украина","Value":"Голосков","Gid":"0","Lon":24.871944444444,"Lat":48.698333333333,"Exp":"2218001","Ecp":"0"},{"Prefix":"ст.","Label":"ст. Голубичи, Украина","LabelTail":"Украина","Value":"Голубичи","Gid":"0","Lon":31.187777777778,"Lat":51.75,"Exp":"2200033","Ecp":"0"},{"Prefix":"ст.","Label":"ст. Голубовка, Украина","LabelTail":"Украина","Value":"Голубовка","Gid":"0","Lon":27.670833333333,"Lat":48.984722222222,"Exp":"2214133","Ecp":"0"},{"Prefix":"ст.","Label":"ст. Голубово, Украина","LabelTail":"Украина","Value":"Голубово","Gid":"0","Lon":0.0,"Lat":0.0,"Exp":"2204689","Ecp":"0"},{"Prefix":"ст.","Label":"ст. Голынь, Украина","LabelTail":"Украина","Value":"Голынь","Gid":"0","Lon":24.248055555556,"Lat":49.005833333333,"Exp":"2218286","Ecp":"0"},{"Prefix":"ст.","Label":"ст. Гоноровка, Украина","LabelTail":"Украина","Value":"Гоноровка","Gid":"0","Lon":26.378611111111,"Lat":49.582222222222,"Exp":"2208613","Ecp":"0"},{"Prefix":"ст.","Label":"ст. Гончаровка, Украина","LabelTail":"Украина","Value":"Гончаровка","Gid":"0","Lon":24.783888888889,"Lat":49.873611111111,"Exp":"2204836","Ecp":"0"},{"Prefix":"ст.","Label":"ст. Горбаши, Украина","LabelTail":"Украина","Value":"Горбаши","Gid":"0","Lon":0.0,"Lat":0.0,"Exp":"2200112","Ecp":"0"},{"Prefix":"ст.","Label":"ст. Гордиевка, Украина","LabelTail":"Украина","Value":"Гордиевка","Gid":"0","Lon":27.876111111111,"Lat":50.055833333333,"Exp":"2201191","Ecp":"0"},{"Prefix":"ст.","Label":"ст. Гордынь, Украина","LabelTail":"Украина","Value":"Гордынь","Gid":"0","Lon":0.0,"Lat":0.0,"Exp":"2201038","Ecp":"0"},{"Prefix":"ст.","Label":"ст. Гордышевка, Украина","LabelTail":"Украина","Value":"Гордышевка","Gid":"0","Lon":0.0,"Lat":0.0,"Exp":"2209406","Ecp":"0"},{"Prefix":"ст.","Label":"ст. Горицветный, Украина","LabelTail":"Украина","Value":"Горицветный","Gid":"0","Lon":0.0,"Lat":0.0,"Exp":"2214651","Ecp":"0"},{"Prefix":"ст.","Label":"ст. Горка, Украина","LabelTail":"Украина","Value":"Горка","Gid":"0","Lon":33.867222222222,"Lat":44.887777777778,"Exp":"2204034","Ecp":"0"},{"Prefix":"ст.","Label":"ст. Горловка, Украина","LabelTail":"Украина","Value":"Горловка","Gid":"0","Lon":38.016944444444,"Lat":48.304166666667,"Exp":"2214240","Ecp":"0"},{"Prefix":"ст.","Label":"ст. Горностаевка, Украина","LabelTail":"Украина","Value":"Горностаевка","Gid":"0","Lon":31.101388888889,"Lat":52.068611111111,"Exp":"2200038","Ecp":"0"},{"Prefix":"ст.","Label":"ст. Горняк, Украина","LabelTail":"Украина","Value":"Горняк","Gid":"0","Lon":24.212222222222,"Lat":50.348611111111,"Exp":"2218063","Ecp":"0"},{"Prefix":"ст.","Label":"ст. Горняк, Украина","LabelTail":"Украина","Value":"Горняк","Gid":"0","Lon":24.212222222222,"Lat":50.348611111111,"Exp":"2214101","Ecp":"0"},{"Prefix":"ст.","Label":"ст. Городенко-Город, Украина","LabelTail":"Украина","Value":"Городенко-Город","Gid":"0","Lon":0.0,"Lat":0.0,"Exp":"2218244","Ecp":"0"},{"Prefix":"ст.","Label":"ст. Городенко-Завод, Украина","LabelTail":"Украина","Value":"Городенко-Завод","Gid":"0","Lon":0.0,"Lat":0.0,"Exp":"2218564","Ecp":"0"},{"Prefix":"ст.","Label":"ст. Городище, Украина","LabelTail":"Украина","Value":"Городище","Gid":"0","Lon":0.0,"Lat":0.0,"Exp":"2218189","Ecp":"0"},{"Prefix":"ст.","Label":"ст. Городище, Украина","LabelTail":"Украина","Value":"Городище","Gid":"0","Lon":0.0,"Lat":0.0,"Exp":"2208099","Ecp":"0"},{"Prefix":"ст.","Label":"ст. Городня, Украина","LabelTail":"Украина","Value":"Городня","Gid":"0","Lon":31.596388888889,"Lat":51.8925,"Exp":"2200272","Ecp":"0"},{"Prefix":"ст.","Label":"ст. Городовичи, Украина","LabelTail":"Украина","Value":"Городовичи","Gid":"0","Lon":22.928611111111,"Lat":49.538611111111,"Exp":"2218159","Ecp":"0"},{"Prefix":"ст.","Label":"ст. Городок, Украина","LabelTail":"Украина","Value":"Городок","Gid":"0","Lon":23.648055555556,"Lat":49.783055555556,"Exp":"2205957","Ecp":"0"},{"Prefix":"ст.","Label":"ст. Городок, Украина","LabelTail":"Украина","Value":"Городок","Gid":"0","Lon":23.648055555556,"Lat":49.783055555556,"Exp":"2208054","Ecp":"0"},{"Prefix":"ст.","Label":"ст. Городок Львовский, Украина","LabelTail":"Украина","Value":"Городок Львовский","Gid":"0","Lon":0.0,"Lat":0.0,"Exp":"2218340","Ecp":"0"},{"Prefix":"ст.","Label":"ст. Горожаны, Украина","LabelTail":"Украина","Value":"Горожаны","Gid":"0","Lon":0.0,"Lat":0.0,"Exp":"2208506","Ecp":"0"},{"Prefix":"ст.","Label":"ст. Горохов, Украина","LabelTail":"Украина","Value":"Горохов","Gid":"0","Lon":24.76,"Lat":50.498611111111,"Exp":"2218285","Ecp":"0"},{"Prefix":"ст.","Label":"ст. Гороховка, Украина","LabelTail":"Украина","Value":"Гороховка","Gid":"0","Lon":32.15,"Lat":46.996666666667,"Exp":"2208437","Ecp":"0"},{"Prefix":"ст.","Label":"ст. Горошков, Украина","LabelTail":"Украина","Value":"Горошков","Gid":"0","Lon":29.892777777778,"Lat":49.238055555556,"Exp":"2201048","Ecp":"0"},{"Prefix":"ст.","Label":"ст. Горяиново, Украина","LabelTail":"Украина","Value":"Горяиново","Gid":"0","Lon":0.0,"Lat":0.0,"Exp":"2210125","Ecp":"0"},{"Prefix":"ст.","Label":"ст. Грабаровка, Украина","LabelTail":"Украина","Value":"Грабаровка","Gid":"0","Lon":27.733888888889,"Lat":48.543055555556,"Exp":"2204558","Ecp":"0"},{"Prefix":"ст.","Label":"ст. Града, Украина","LabelTail":"Украина","Value":"Града","Gid":"0","Lon":25.536111111111,"Lat":50.118888888889,"Exp":"2200704","Ecp":"0"},{"Prefix":"ст.","Label":"ст. Гражданский, Украина","LabelTail":"Украина","Value":"Гражданский","Gid":"0","Lon":0.0,"Lat":0.0,"Exp":"2204492","Ecp":"0"},{"Prefix":"ст.","Label":"ст. Граковка, Украина","LabelTail":"Украина","Value":"Граковка","Gid":"0","Lon":0.0,"Lat":0.0,"Exp":"2214714","Ecp":"0"},{"Prefix":"ст.","Label":"ст. Граково, Украина","LabelTail":"Украина","Value":"Граково","Gid":"0","Lon":36.815277777778,"Lat":49.716666666667,"Exp":"2204424","Ecp":"0"},{"Prefix":"ст.","Label":"ст. Гранитный, Украина","LabelTail":"Украина","Value":"Гранитный","Gid":"0","Lon":0.0,"Lat":0.0,"Exp":"2200705","Ecp":"0"},{"Prefix":"ст.","Label":"ст. Граново, Украина","LabelTail":"Украина","Value":"Граново","Gid":"0","Lon":34.143333333333,"Lat":48.463055555556,"Exp":"2210389","Ecp":"0"},{"Prefix":"ст.","Label":"ст. Гребенка, Украина","LabelTail":"Украина","Value":"Гребенка","Gid":"0","Lon":0.0,"Lat":0.0,"Exp":"2204550","Ecp":"0"},{"Prefix":"ст.","Label":"ст. Гребенов, Украина","LabelTail":"Украина","Value":"Гребенов","Gid":"0","Lon":23.473611111111,"Lat":48.972222222222,"Exp":"2218879","Ecp":"0"},{"Prefix":"ст.","Label":"ст. Грезля, Украина","LabelTail":"Украина","Value":"Грезля","Gid":"0","Lon":29.272777777778,"Lat":51.332222222222,"Exp":"2200074","Ecp":"0"},{"Prefix":"ст.","Label":"ст. Грейгово, Украина","LabelTail":"Украина","Value":"Грейгово","Gid":"0","Lon":32.300555555556,"Lat":47.111666666667,"Exp":"2208509","Ecp":"0"},{"Prefix":"ст.","Label":"ст. Грековатая, Украина","LabelTail":"Украина","Value":"Грековатая","Gid":"0","Lon":0.0,"Lat":0.0,"Exp":"2210783","Ecp":"0"},{"Prefix":"ст.","Label":"ст. Грениковка, Украина","LabelTail":"Украина","Value":"Грениковка","Gid":"0","Lon":0.0,"Lat":0.0,"Exp":"2204749","Ecp":"0"},{"Prefix":"ст.","Label":"ст. Гречанский Переезд, Украина","LabelTail":"Украина","Value":"Гречанский Переезд","Gid":"0","Lon":0.0,"Lat":0.0,"Exp":"2201791","Ecp":"0"},{"Prefix":"ст.","Label":"ст. Гречаны, Украина","LabelTail":"Украина","Value":"Гречаны","Gid":"0","Lon":0.0,"Lat":0.0,"Exp":"2200229","Ecp":"0"},{"Prefix":"ст.","Label":"ст. Грибова Рудня, Украина","LabelTail":"Украина","Value":"Грибова Рудня","Gid":"0","Lon":31.097222222222,"Lat":51.952222222222,"Exp":"2200039","Ecp":"0"},{"Prefix":"ст.","Label":"ст. Григоро-Ивановка, Украина","LabelTail":"Украина","Value":"Григоро-Ивановка","Gid":"0","Lon":31.825555555556,"Lat":51.008055555556,"Exp":"2200352","Ecp":"0"},{"Prefix":"ст.","Label":"ст. Григоровка, Украина","LabelTail":"Украина","Value":"Григоровка","Gid":"0","Lon":26.953611111111,"Lat":49.977222222222,"Exp":"2204534","Ecp":"0"},{"Prefix":"ст.","Label":"ст. Гришки, Украина","LabelTail":"Украина","Value":"Гришки","Gid":"0","Lon":27.738055555556,"Lat":49.181388888889,"Exp":"2201269","Ecp":"0"},{"Prefix":"ст.","Label":"ст. Гришки, Украина","LabelTail":"Украина","Value":"Гришки","Gid":"0","Lon":27.738055555556,"Lat":49.181388888889,"Exp":"2204031","Ecp":"0"},{"Prefix":"ст.","Label":"ст. Гродовка, Украина","LabelTail":"Украина","Value":"Гродовка","Gid":"0","Lon":37.378888888889,"Lat":48.263055555556,"Exp":"2214015","Ecp":"0"},{"Prefix":"ст.","Label":"ст. Гроза, Украина","LabelTail":"Украина","Value":"Гроза","Gid":"0","Lon":35.075277777778,"Lat":48.160555555556,"Exp":"2204422","Ecp":"0"},{"Prefix":"ст.","Label":"ст. Грузевцы, Украина","LabelTail":"Украина","Value":"Грузевцы","Gid":"0","Lon":0.0,"Lat":0.0,"Exp":"2201266","Ecp":"0"},{"Prefix":"ст.","Label":"ст. Грузское, Украина","LabelTail":"Украина","Value":"Грузское","Gid":"0","Lon":29.616944444444,"Lat":48.750833333333,"Exp":"2200028","Ecp":"0"},{"Prefix":"ст.","Label":"ст. Грушево, Украина","LabelTail":"Украина","Value":"Грушево","Gid":"0","Lon":23.767222222222,"Lat":48.004722222222,"Exp":"2218440","Ecp":"0"},{"Prefix":"ст.","Label":"ст. Грушка, Украина","LabelTail":"Украина","Value":"Грушка","Gid":"0","Lon":24.266388888889,"Lat":50.142222222222,"Exp":"2209506","Ecp":"0"},{"Prefix":"ст.","Label":"ст. Губаревка, Украина","LabelTail":"Украина","Value":"Губаревка","Gid":"0","Lon":34.492222222222,"Lat":49.149722222222,"Exp":"2204515","Ecp":"0"},{"Prefix":"ст.","Label":"ст. Губиниха, Украина","LabelTail":"Украина","Value":"Губиниха","Gid":"0","Lon":35.277777777778,"Lat":48.811944444444,"Exp":"2210784","Ecp":"0"},{"Prefix":"ст.","Label":"ст. Губник, Украина","LabelTail":"Украина","Value":"Губник","Gid":"0","Lon":29.334166666667,"Lat":48.6175,"Exp":"2208426","Ecp":"0"},{"Prefix":"ст.","Label":"ст. Гудово, Украина","LabelTail":"Украина","Value":"Гудово","Gid":"0","Lon":34.175277777778,"Lat":51.5375,"Exp":"2200706","Ecp":"0"},{"Prefix":"ст.","Label":"ст. Гулевцы, Украина","LabelTail":"Украина","Value":"Гулевцы","Gid":"0","Lon":26.492777777778,"Lat":50.015277777778,"Exp":"2200195","Ecp":"0"},{"Prefix":"ст.","Label":"ст. Гульск, Украина","LabelTail":"Украина","Value":"Гульск","Gid":"0","Lon":27.717222222222,"Lat":50.521388888889,"Exp":"2201787","Ecp":"0"},{"Prefix":"ст.","Label":"ст. Гуляйполе, Украина","LabelTail":"Украина","Value":"Гуляйполе","Gid":"0","Lon":30.971388888889,"Lat":48.851388888889,"Exp":"2210935","Ecp":"0"},{"Prefix":"ст.","Label":"ст. Гуменное, Украина","LabelTail":"Украина","Value":"Гуменное","Gid":"0","Lon":0.0,"Lat":0.0,"Exp":"2200205","Ecp":"0"},{"Prefix":"ст.","Label":"ст. Гуменцы, Украина","LabelTail":"Украина","Value":"Гуменцы","Gid":"0","Lon":24.052777777778,"Lat":51.39,"Exp":"2200707","Ecp":"0"},{"Prefix":"ст.","Label":"ст. Гусаково, Украина","LabelTail":"Украина","Value":"Гусаково","Gid":"0","Lon":30.829722222222,"Lat":49.0,"Exp":"2209472","Ecp":"0"},{"Prefix":"ст.","Label":"ст. Гусарка, Украина","LabelTail":"Украина","Value":"Гусарка","Gid":"0","Lon":36.543611111111,"Lat":47.361388888889,"Exp":"2210696","Ecp":"0"},{"Prefix":"ст.","Label":"ст. Гусаровка, Украина","LabelTail":"Украина","Value":"Гусаровка","Gid":"0","Lon":29.014444444444,"Lat":51.35,"Exp":"2200339","Ecp":"0"},{"Prefix":"ст.","Label":"ст. Гусаровка, Украина","LabelTail":"Украина","Value":"Гусаровка","Gid":"0","Lon":29.014444444444,"Lat":51.35,"Exp":"2214048","Ecp":"0"},{"Prefix":"ст.","Label":"ст. Гусинка, Украина","LabelTail":"Украина","Value":"Гусинка","Gid":"0","Lon":37.426666666667,"Lat":49.826111111111,"Exp":"2204399","Ecp":"0"},{"Prefix":"ст.","Label":"ст. Гусятин, Украина","LabelTail":"Украина","Value":"Гусятин","Gid":"0","Lon":26.199722222222,"Lat":49.070833333333,"Exp":"2218449","Ecp":"0"},{"Prefix":"ст.","Label":"ст. Гутиско, Украина","LabelTail":"Украина","Value":"Гутиско","Gid":"0","Lon":0.0,"Lat":0.0,"Exp":"2218369","Ecp":"0"},{"Prefix":"ст.","Label":"ст. Давидовцы, Украина","LabelTail":"Украина","Value":"Давидовцы","Gid":"0","Lon":0.0,"Lat":0.0,"Exp":"2218404","Ecp":"0"},{"Prefix":"ст.","Label":"ст. Давлет-Агач, Украина","LabelTail":"Украина","Value":"Давлет-Агач","Gid":"0","Lon":0.0,"Lat":0.0,"Exp":"2208493","Ecp":"0"},{"Prefix":"ст.","Label":"ст. Давыдов, Украина","LabelTail":"Украина","Value":"Давыдов","Gid":"0","Lon":24.135833333333,"Lat":49.751666666667,"Exp":"2218093","Ecp":"0"},{"Prefix":"ст.","Label":"ст. Даниловка, Украина","LabelTail":"Украина","Value":"Даниловка","Gid":"0","Lon":22.365555555556,"Lat":48.338888888889,"Exp":"2208005","Ecp":"0"},{"Prefix":"ст.","Label":"ст. Даниловка, Украина","LabelTail":"Украина","Value":"Даниловка","Gid":"0","Lon":22.365555555556,"Lat":48.338888888889,"Exp":"2200384","Ecp":"0"},{"Prefix":"ст.","Label":"ст. Дарница, Украина","LabelTail":"Украина","Value":"Дарница","Gid":"0","Lon":31.625833333333,"Lat":48.060277777778,"Exp":"2200007","Ecp":"0"},{"Prefix":"ст.","Label":"ст. Дарница Депо, Украина","LabelTail":"Украина","Value":"Дарница Депо","Gid":"0","Lon":0.0,"Lat":0.0,"Exp":"2201280","Ecp":"0"},{"Prefix":"ст.","Label":"ст. Дарьевка, Украина","LabelTail":"Украина","Value":"Дарьевка","Gid":"0","Lon":32.100277777778,"Lat":48.408888888889,"Exp":"2209390","Ecp":"0"},{"Prefix":"ст.","Label":"ст. Дарьевка, Украина","LabelTail":"Украина","Value":"Дарьевка","Gid":"0","Lon":32.100277777778,"Lat":48.408888888889,"Exp":"2214206","Ecp":"0"},{"Prefix":"ст.","Label":"ст. Дачи, Украина","LabelTail":"Украина","Value":"Дачи","Gid":"0","Lon":0.0,"Lat":0.0,"Exp":"2218246","Ecp":"0"},{"Prefix":"ст.","Label":"ст. Дачи, Украина","LabelTail":"Украина","Value":"Дачи","Gid":"0","Lon":0.0,"Lat":0.0,"Exp":"2204860","Ecp":"0"},{"Prefix":"ст.","Label":"ст. Дачная, Украина","LabelTail":"Украина","Value":"Дачная","Gid":"0","Lon":0.0,"Lat":0.0,"Exp":"2208142","Ecp":"0"},{"Prefix":"ст.","Label":"ст. Дачная, Украина","LabelTail":"Украина","Value":"Дачная","Gid":"0","Lon":0.0,"Lat":0.0,"Exp":"2208471","Ecp":"0"},{"Prefix":"ст.","Label":"ст. Дачная, Украина","LabelTail":"Украина","Value":"Дачная","Gid":"0","Lon":0.0,"Lat":0.0,"Exp":"2200393","Ecp":"0"},{"Prefix":"ст.","Label":"ст. Дачное, Украина","LabelTail":"Украина","Value":"Дачное","Gid":"0","Lon":25.395,"Lat":50.806388888889,"Exp":"2218380","Ecp":"0"},{"Prefix":"ст.","Label":"ст. Дачный, Украина","LabelTail":"Украина","Value":"Дачный","Gid":"0","Lon":0.0,"Lat":0.0,"Exp":"2208036","Ecp":"0"},{"Prefix":"ст.","Label":"ст. Дворецкая, Украина","LabelTail":"Украина","Value":"Дворецкая","Gid":"0","Lon":0.0,"Lat":0.0,"Exp":"2218406","Ecp":"0"},{"Prefix":"ст.","Label":"ст. Дворецкий, Украина","LabelTail":"Украина","Value":"Дворецкий","Gid":"0","Lon":0.0,"Lat":0.0,"Exp":"2200299","Ecp":"0"},{"Prefix":"ст.","Label":"ст. Дврз, Украина","LabelTail":"Украина","Value":"Дврз","Gid":"0","Lon":0.0,"Lat":0.0,"Exp":"2201128","Ecp":"0"},{"Prefix":"ст.","Label":"ст. Двуречная, Украина","LabelTail":"Украина","Value":"Двуречная","Gid":"0","Lon":37.6825,"Lat":49.850833333333,"Exp":"2204413","Ecp":"0"},{"Prefix":"ст.","Label":"ст. Дебальцево, Украина","LabelTail":"Украина","Value":"Дебальцево","Gid":"0","Lon":36.0625,"Lat":48.113333333333,"Exp":"2214210","Ecp":"0"},{"Prefix":"ст.","Label":"ст. Дебальцево Сортировочн, Украина","LabelTail":"Украина","Value":"Дебальцево Сортировочн","Gid":"0","Lon":0.0,"Lat":0.0,"Exp":"2214287","Ecp":"0"},{"Prefix":"ст.","Label":"ст. Девладово, Украина","LabelTail":"Украина","Value":"Девладово","Gid":"0","Lon":33.751388888889,"Lat":48.103333333333,"Exp":"2210773","Ecp":"0"},{"Prefix":"ст.","Label":"ст. Деконская, Украина","LabelTail":"Украина","Value":"Деконская","Gid":"0","Lon":0.0,"Lat":0.0,"Exp":"2214237","Ecp":"0"},{"Prefix":"ст.","Label":"ст. Делятин, Украина","LabelTail":"Украина","Value":"Делятин","Gid":"0","Lon":24.628055555556,"Lat":48.527222222222,"Exp":"2218219","Ecp":"0"},{"Prefix":"ст.","Label":"ст. Демейка, Украина","LabelTail":"Украина","Value":"Демейка","Gid":"0","Lon":0.0,"Lat":0.0,"Exp":"2200322","Ecp":"0"},{"Prefix":"ст.","Label":"ст. Деменково, Украина","LabelTail":"Украина","Value":"Деменково","Gid":"0","Lon":39.061944444444,"Lat":48.897777777778,"Exp":"2214031","Ecp":"0"},{"Prefix":"ст.","Label":"ст. Демидовка, Украина","LabelTail":"Украина","Value":"Демидовка","Gid":"0","Lon":25.338611111111,"Lat":50.429166666667,"Exp":"2200708","Ecp":"0"},{"Prefix":"ст.","Label":"ст. Демковка, Украина","LabelTail":"Украина","Value":"Демковка","Gid":"0","Lon":29.078055555556,"Lat":48.538055555556,"Exp":"2208428","Ecp":"0"},{"Prefix":"ст.","Label":"ст. Демурино, Украина","LabelTail":"Украина","Value":"Демурино","Gid":"0","Lon":36.4725,"Lat":48.181944444444,"Exp":"2214011","Ecp":"0"},{"Prefix":"ст.","Label":"ст. Демчин, Украина","LabelTail":"Украина","Value":"Демчин","Gid":"0","Lon":28.403888888889,"Lat":49.9475,"Exp":"2200173","Ecp":"0"},{"Prefix":"ст.","Label":"ст. Денгофовка, Украина","LabelTail":"Украина","Value":"Денгофовка","Gid":"0","Lon":0.0,"Lat":0.0,"Exp":"2200168","Ecp":"0"},{"Prefix":"ст.","Label":"ст. Денисов-Купчинце, Украина","LabelTail":"Украина","Value":"Денисов-Купчинце","Gid":"0","Lon":0.0,"Lat":0.0,"Exp":"2218465","Ecp":"0"},{"Prefix":"ст.","Label":"ст. Депо, Украина","LabelTail":"Украина","Value":"Депо","Gid":"0","Lon":0.0,"Lat":0.0,"Exp":"2210222","Ecp":"0"},{"Prefix":"ст.","Label":"ст. Депо-Узел, Украина","LabelTail":"Украина","Value":"Депо-Узел","Gid":"0","Lon":0.0,"Lat":0.0,"Exp":"2210210","Ecp":"0"},{"Prefix":"ст.","Label":"ст. Депрерадовка, Украина","LabelTail":"Украина","Value":"Депрерадовка","Gid":"0","Lon":38.498611111111,"Lat":48.362777777778,"Exp":"2214192","Ecp":"0"},{"Prefix":"ст.","Label":"ст. Деражня, Украина","LabelTail":"Украина","Value":"Деражня","Gid":"0","Lon":27.432777777778,"Lat":49.268888888889,"Exp":"2201263","Ecp":"0"},{"Prefix":"ст.","Label":"ст. Дергановка, Украина","LabelTail":"Украина","Value":"Дергановка","Gid":"0","Lon":29.019444444444,"Lat":49.694722222222,"Exp":"2202263","Ecp":"0"},{"Prefix":"ст.","Label":"ст. Дергачи, Украина","LabelTail":"Украина","Value":"Дергачи","Gid":"0","Lon":36.120833333333,"Lat":50.1075,"Exp":"2204441","Ecp":"0"},{"Prefix":"ст.","Label":"ст. Деревины, Украина","LabelTail":"Украина","Value":"Деревины","Gid":"0","Lon":31.5075,"Lat":52.103611111111,"Exp":"2200269","Ecp":"0"},