[{"Prefix":"п.п.","Label":"п.п. 11 км, Віцебская вобл., Беларусь","LabelTail":"Віцебская вобл., Беларусь","Value":"11 км","Gid":"710","Lon":54.575555555556,"Lat":30.27,"Exp":"2100858","Ecp":"168767"},{"Prefix":"п.п.","Label":"п.п. 15км, Гомельская вобл., Беларусь","LabelTail":"Гомельская вобл., Беларусь","Value":"15км","Gid":"594","Lon":52.274166666667,"Lat":31.081388888889,"Exp":"2100889","Ecp":"150299"},{"Prefix":"пп","Label":"пп 19 км, Віцебская вобл., Беларусь","LabelTail":"Віцебская вобл., Беларусь","Value":"19 км","Gid":"793","Lon":55.044166666667,"Lat":30.168055555556,"Exp":"2100874","Ecp":"167016"},{"Prefix":"пп","Label":"пп 25 км, Віцебская вобл., Беларусь","LabelTail":"Віцебская вобл., Беларусь","Value":"25 км","Gid":"791","Lon":54.971666666667,"Lat":30.176388888889,"Exp":"2100875","Ecp":"167020"},{"Prefix":"ст.","Label":"ст. 323 км, Беларусь","LabelTail":"","Value":"323 км","Gid":"0","Lon":0.0,"Lat":0.0,"Exp":"0","Ecp":"003121"},{"Prefix":"п.п.","Label":"п.п. 331км, Магілёўская вобл., Беларусь","LabelTail":"Магілёўская вобл., Беларусь","Value":"331км","Gid":"516","Lon":53.068888888889,"Lat":29.405277777778,"Exp":"2100855","Ecp":"147741"},{"Prefix":"ст.","Label":"ст. 344 км, Беларусь","LabelTail":"","Value":"344 км","Gid":"0","Lon":0.0,"Lat":0.0,"Exp":"0","Ecp":"003122"},{"Prefix":"ст.","Label":"ст. 355 км, Беларусь","LabelTail":"","Value":"355 км","Gid":"0","Lon":0.0,"Lat":0.0,"Exp":"0","Ecp":"003123"},{"Prefix":"ст.","Label":"ст. 398 км, Беларусь","LabelTail":"","Value":"398 км","Gid":"0","Lon":0.0,"Lat":0.0,"Exp":"0","Ecp":"003124"},{"Prefix":"ст.","Label":"ст. 414 км, Беларусь","LabelTail":"","Value":"414 км","Gid":"0","Lon":0.0,"Lat":0.0,"Exp":"0","Ecp":""},{"Prefix":"ст.","Label":"ст. 443 км, Беларусь","LabelTail":"","Value":"443 км","Gid":"0","Lon":0.0,"Lat":0.0,"Exp":"0","Ecp":""},{"Prefix":"ст.","Label":"ст. 447 км, Беларусь","LabelTail":"","Value":"447 км","Gid":"0","Lon":0.0,"Lat":0.0,"Exp":"0","Ecp":"003119"},{"Prefix":"ст.","Label":"ст. 453 км, Беларусь","LabelTail":"","Value":"453 км","Gid":"0","Lon":0.0,"Lat":0.0,"Exp":"0","Ecp":"003120"},{"Prefix":"ст.","Label":"ст. 409 км, Беларусь","LabelTail":"","Value":"409 км","Gid":"0","Lon":0.0,"Lat":0.0,"Exp":"0","Ecp":""},{"Prefix":"п.п.","Label":"п.п. Агдэмер, Брэсцкая вобл., Беларусь","LabelTail":"Брэсцкая вобл., Беларусь","Value":"Агдэмер","Gid":"653","Lon":52.154722222222,"Lat":25.32,"Exp":"2100833","Ecp":"133014"},{"Prefix":"п.п.","Label":"п.п. Аголічы, Гомельская вобл., Беларусь","LabelTail":"Гомельская вобл., Беларусь","Value":"Аголічы","Gid":"678","Lon":52.215,"Lat":28.379722222222,"Exp":"2100420","Ecp":"153511"},{"Prefix":"ст.","Label":"ст. Памыслішча, аг. Шчамысліца, Мінская вобл., Беларусь","LabelTail":"аг. Шчамысліца, Мінская вобл., Беларусь","Value":"Памыслішча","Gid":"330","Lon":53.815555555556,"Lat":27.453333333333,"Exp":"2100522","Ecp":"144635"},{"Prefix":"ст.","Label":"ст. Адамова, Віцебская вобл., Беларусь","LabelTail":"Віцебская вобл., Беларусь","Value":"Адамова","Gid":"141","Lon":55.621111111111,"Lat":28.469166666667,"Exp":"2100480","Ecp":"162012"},{"Prefix":"п.п.","Label":"п.п. Адроўка, Віцебская вобл., Беларусь","LabelTail":"Віцебская вобл., Беларусь","Value":"Адроўка","Gid":"706","Lon":54.636111111111,"Lat":30.05,"Exp":"2100261","Ecp":"168663"},{"Prefix":"п.п.","Label":"п.п. Азёрная, Брэсцкая вобл., Беларусь","LabelTail":"Брэсцкая вобл., Беларусь","Value":"Азёрная","Gid":"621","Lon":52.202777777778,"Lat":26.318055555556,"Exp":"2100834","Ecp":"133414"},{"Prefix":"ст.","Label":"ст. Азярніца, Гродзенская вобл., Беларусь","LabelTail":"Гродзенская вобл., Беларусь","Value":"Азярніца","Gid":"474","Lon":53.083888888889,"Lat":25.034444444444,"Exp":"2100448","Ecp":"136906"},{"Prefix":"ст.","Label":"ст. Азярышча, г. Мінск, Мінская вобл., Беларусь","LabelTail":"г. Мінск, Мінская вобл., Беларусь","Value":"Азярышча","Gid":"67","Lon":53.931666666667,"Lat":27.714166666667,"Exp":"2100509","Ecp":"140704"},{"Prefix":"п.п.","Label":"п.п. Александрыя, Магілёўская вобл., Беларусь","LabelTail":"Магілёўская вобл., Беларусь","Value":"Александрыя","Gid":"804","Lon":54.3425,"Lat":30.277777777778,"Exp":"2100409","Ecp":"156929"},{"Prefix":"п.п.","Label":"п.п. Алёнушка, Брэсцкая вобл., Беларусь","LabelTail":"Брэсцкая вобл., Беларусь","Value":"Алёнушка","Gid":"937","Lon":52.188888888889,"Lat":26.289166666667,"Exp":"2100651","Ecp":"133310"},{"Prefix":"ст.","Label":"ст. Алёшча, Віцебская вобл., Беларусь","LabelTail":"Віцебская вобл., Беларусь","Value":"Алёшча","Gid":"134","Lon":55.734166666667,"Lat":29.328611111111,"Exp":"2100234","Ecp":"161607"},{"Prefix":"п.п.","Label":"п.п. Альсевічы, Брэсцкая вобл., Беларусь","LabelTail":"Брэсцкая вобл., Беларусь","Value":"Альсевічы","Gid":"492","Lon":53.185,"Lat":26.128333333333,"Exp":"2101075","Ecp":"138511"},{"Prefix":"п.п.","Label":"п.п. Альхоўка, Магілёўская вобл., Беларусь","LabelTail":"Магілёўская вобл., Беларусь","Value":"Альхоўка","Gid":"456","Lon":53.486666666667,"Lat":29.178055555556,"Exp":"2100882","Ecp":"157029"},{"Prefix":"п.п.","Label":"п.п. Аляксандраўка, Мінская вобл., Беларусь","LabelTail":"Мінская вобл., Беларусь","Value":"Аляксандраўка","Gid":"508","Lon":53.080277777778,"Lat":28.291666666667,"Exp":"2100784","Ecp":"149111"},{"Prefix":"ст.","Label":"ст. Аляхновічы, Мінская вобл., Беларусь","LabelTail":"Мінская вобл., Беларусь","Value":"Аляхновічы","Gid":"274","Lon":54.149166666667,"Lat":27.099444444444,"Exp":"2100107","Ecp":"142409"},{"Prefix":"п.п.","Label":"п.п. Амяльня, Магілёўская вобл., Беларусь","LabelTail":"Магілёўская вобл., Беларусь","Value":"Амяльня","Gid":"518","Lon":53.009166666667,"Lat":29.659444444444,"Exp":"2100117","Ecp":"147826"},{"Prefix":"ст.","Label":"ст. Андрэeвічы, Гродзенская вобл., Беларусь","LabelTail":"Гродзенская вобл., Беларусь","Value":"Андрэeвічы","Gid":"765","Lon":53.111388888889,"Lat":24.3,"Exp":"2100667","Ecp":"136249"},{"Prefix":"п.п.","Label":"п.п. Антонаўка, Магілёўская вобл., Беларусь","LabelTail":"Магілёўская вобл., Беларусь","Value":"Антонаўка","Gid":"737","Lon":53.840555555556,"Lat":30.606944444444,"Exp":"2100575","Ecp":"157724"},{"Prefix":"п.п.","Label":"п.п. Антопаль, Гомельская вобл., Беларусь","LabelTail":"Гомельская вобл., Беларусь","Value":"Антопаль","Gid":"403","Lon":52.336111111111,"Lat":30.2275,"Exp":"2101004","Ecp":"154726"},{"Prefix":"п.п.","Label":"п.п. Антопаль, Брэсцкая вобл., Беларусь","LabelTail":"Брэсцкая вобл., Беларусь","Value":"Антопаль","Gid":"649","Lon":52.189444444444,"Lat":24.780277777778,"Exp":"2100561","Ecp":"132816"},{"Prefix":"п.п.","Label":"п.п. Анусіна, Мінская вобл., Беларусь","LabelTail":"Мінская вобл., Беларусь","Value":"Анусіна","Gid":"272","Lon":54.049166666667,"Lat":27.224444444444,"Exp":"2100765","Ecp":"143524"},{"Prefix":"п.п.","Label":"п.п. Апалонаўка, Магілёўская вобл., Беларусь","LabelTail":"Магілёўская вобл., Беларусь","Value":"Апалонаўка","Gid":"806","Lon":54.184722222222,"Lat":30.290833333333,"Exp":"2100857","Ecp":"156825"},{"Prefix":"ст.","Label":"ст. Аранчыцы, Брэсцкая вобл., Беларусь","LabelTail":"Брэсцкая вобл., Беларусь","Value":"Аранчыцы","Gid":"912","Lon":52.470833333333,"Lat":24.523055555556,"Exp":"2100085","Ecp":"133607"},{"Prefix":"г.","Label":"г. Асіповічы, Магілёўская вобл., Беларусь","LabelTail":"Магілёўская вобл., Беларусь","Value":"Асіповічы","Gid":"35","Lon":53.299166666667,"Lat":28.646666666667,"Exp":"2100270","Ecp":"146407"},{"Prefix":"ст.","Label":"ст. Асавец, Магілёўская вобл., Беларусь","LabelTail":"Магілёўская вобл., Беларусь","Value":"Асавец","Gid":"823","Lon":53.755277777778,"Lat":31.440833333333,"Exp":"2100097","Ecp":"158110"},{"Prefix":"п.п.","Label":"п.п. Асанаўскі, Мінская вобл., Беларусь","LabelTail":"Мінская вобл., Беларусь","Value":"Асанаўскі","Gid":"253","Lon":54.331666666667,"Lat":26.730277777778,"Exp":"2100866","Ecp":"163528"},{"Prefix":"п.п.","Label":"п.п. Асееўка, Мінская вобл., Беларусь","LabelTail":"Мінская вобл., Беларусь","Value":"Асееўка","Gid":"58","Lon":53.768611111111,"Lat":27.653333333333,"Exp":"2100319","Ecp":"144832"},{"Prefix":"п.п.","Label":"п.п. Асіна, Мінская вобл., Беларусь","LabelTail":"Мінская вобл., Беларусь","Value":"Асіна","Gid":"422","Lon":53.5575,"Lat":26.993888888889,"Exp":"2101011","Ecp":"144438"},{"Prefix":"ст.","Label":"ст. Асінаўка, Віцебская вобл., Беларусь","LabelTail":"Віцебская вобл., Беларусь","Value":"Асінаўка","Gid":"787","Lon":54.649722222222,"Lat":30.658611111111,"Exp":"2100016","Ecp":"169007"},{"Prefix":"п.п.","Label":"п.п. Асіпаўшчына, Мінская вобл., Беларусь","LabelTail":"Мінская вобл., Беларусь","Value":"Асіпаўшчына","Gid":"429","Lon":53.388055555556,"Lat":26.601944444444,"Exp":"2100553","Ecp":"138615"},{"Prefix":"ст.","Label":"ст. Асіповічы 1, г. Асіповічы, Магілёўская вобл., Беларусь","LabelTail":"г. Асіповічы, Магілёўская вобл., Беларусь","Value":"Асіповічы 1","Gid":"35","Lon":53.299166666667,"Lat":28.646666666667,"Exp":"2100270","Ecp":"146407"},{"Prefix":"ст.","Label":"ст. Асіповічы 2, г. Асіповічы, Магілёўская вобл., Беларусь","LabelTail":"г. Асіповічы, Магілёўская вобл., Беларусь","Value":"Асіповічы 2","Gid":"835","Lon":53.301944444444,"Lat":28.703888888889,"Exp":"2100271","Ecp":"146414"},{"Prefix":"ст.","Label":"ст. Асіповічы 3, г. Асіповічы, Магілёўская вобл., Беларусь","LabelTail":"г. Асіповічы, Магілёўская вобл., Беларусь","Value":"Асіповічы 3","Gid":"840","Lon":53.282222222222,"Lat":28.713055555556,"Exp":"2100272","Ecp":"146433"},{"Prefix":"п.п.","Label":"п.п. Асмолавічы, Магілёўская вобл., Беларусь","LabelTail":"Магілёўская вобл., Беларусь","Value":"Асмолавічы","Gid":"376","Lon":53.522777777778,"Lat":32.009166666667,"Exp":"2100673","Ecp":"159128"},{"Prefix":"ст.","Label":"ст. Астанкавічы, Гомельская вобл., Беларусь","LabelTail":"Гомельская вобл., Беларусь","Value":"Астанкавічы","Gid":"867","Lon":52.470833333333,"Lat":29.542222222222,"Exp":"2100228","Ecp":"154143"},{"Prefix":"п.п.","Label":"п.п. Савецкі, г. Асіповічы, Магілёўская вобл., Беларусь","LabelTail":"г. Асіповічы, Магілёўская вобл., Беларусь","Value":"Савецкі","Gid":"838","Lon":53.316944444444,"Lat":28.586111111111,"Exp":"2100795","Ecp":"146448"},{"Prefix":"п.п.","Label":"п.п. Юбілейны, г. Асіповічы, Магілёўская вобл., Беларусь","LabelTail":"г. Асіповічы, Магілёўская вобл., Беларусь","Value":"Юбілейны","Gid":"839","Lon":53.308888888889,"Lat":28.613888888889,"Exp":"2100796","Ecp":"146467"},{"Prefix":"п.п.","Label":"п.п. Аточка, Мінская вобл., Беларусь","LabelTail":"Мінская вобл., Беларусь","Value":"Аточка","Gid":"529","Lon":52.958333333333,"Lat":27.969444444444,"Exp":"2100782","Ecp":"149018"},{"Prefix":"п.п.","Label":"п.п. Атцэда, Мінская вобл., Беларусь","LabelTail":"Мінская вобл., Беларусь","Value":"Атцэда","Gid":"425","Lon":53.513888888889,"Lat":26.868888888889,"Exp":"2100477","Ecp":"138723"},{"Prefix":"ст.","Label":"ст. Аульс, г. Гродна, Гродзенская вобл., Беларусь","LabelTail":"г. Гродна, Гродзенская вобл., Беларусь","Value":"Аульс","Gid":"620","Lon":53.674166666667,"Lat":23.96,"Exp":"2100545","Ecp":"135301"},{"Prefix":"п.п.","Label":"п.п. Аўраамаўская, Гомельская вобл., Беларусь","LabelTail":"Гомельская вобл., Беларусь","Value":"Аўраамаўская","Gid":"951","Lon":52.051666666667,"Lat":29.995,"Exp":"2100594","Ecp":"154529"},{"Prefix":"ст.","Label":"ст. Ашмяны, Гродзенская вобл., Беларусь","LabelTail":"Гродзенская вобл., Беларусь","Value":"Ашмяны","Gid":"216","Lon":54.531388888889,"Lat":26.080833333333,"Exp":"2100301","Ecp":"163104"},{"Prefix":"г.","Label":"г. Баранавічы, Брэсцкая вобл., Беларусь","LabelTail":"Брэсцкая вобл., Беларусь","Value":"Баранавічы","Gid":"48","Lon":26.016666666667,"Lat":53.133333333333,"Exp":"2100005","Ecp":"138507"},{"Prefix":"г.","Label":"г. Бабруйск, г. Бабруйск, Магілёўская вобл., Беларусь","LabelTail":"г. Бабруйск, Магілёўская вобл., Беларусь","Value":"Бабруйск","Gid":"630","Lon":53.148888888889,"Lat":29.232777777778,"Exp":"2100310","Ecp":"147008"},{"Prefix":"ст.","Label":"ст. Бабруйск, г. Бабруйск, Магілёўская вобл., Беларусь","LabelTail":"г. Бабруйск, Магілёўская вобл., Беларусь","Value":"Бабруйск","Gid":"630","Lon":53.1375,"Lat":29.195,"Exp":"2100113","Ecp":"147008"},{"Prefix":"ст.","Label":"ст. Баранавічы Палескія, г. Баранавічы, Брэсцкая вобл., Беларусь","LabelTail":"г. Баранавічы, Брэсцкая вобл., Беларусь","Value":"Баранавічы Палескія","Gid":"616","Lon":53.128888888889,"Lat":26.041944444444,"Exp":"2100010","Ecp":"138901"},{"Prefix":"п.п.","Label":"п.п. Бабіна, Магілёўская вобл., Беларусь","LabelTail":"Магілёўская вобл., Беларусь","Value":"Бабіна","Gid":"514","Lon":53.1175,"Lat":29.320833333333,"Exp":"2100330","Ecp":"147718"},{"Prefix":"ст.","Label":"ст. Бабічы, Гомельская вобл., Беларусь","LabelTail":"Гомельская вобл., Беларусь","Value":"Бабічы","Gid":"586","Lon":52.291111111111,"Lat":30.000555555556,"Exp":"2100202","Ecp":"154425"},{"Prefix":"п.п.","Label":"п.п. Бабры, Брэсцкая вобл., Беларусь","LabelTail":"Брэсцкая вобл., Беларусь","Value":"Бабры","Gid":"644","Lon":52.2175,"Lat":24.092777777778,"Exp":"2100831","Ecp":"131298"},{"Prefix":"п.п.","Label":"п.п. Бабры, Гродзенская вобл., Беларусь","LabelTail":"Гродзенская вобл., Беларусь","Value":"Бабры","Gid":"413","Lon":53.531111111111,"Lat":24.741944444444,"Exp":"2100744","Ecp":"137256"},{"Prefix":"п.п.","Label":"п.п. Бабрэчча, Гомельская вобл., Беларусь","LabelTail":"Гомельская вобл., Беларусь","Value":"Бабрэчча","Gid":"680","Lon":52.190555555556,"Lat":28.729444444444,"Exp":"2100815","Ecp":"153776"},{"Prefix":"ст.","Label":"ст. Багданаў, Мінская вобл., Беларусь","LabelTail":"Мінская вобл., Беларусь","Value":"Багданаў","Gid":"248","Lon":54.171111111111,"Lat":26.153888888889,"Exp":"2100058","Ecp":"162506"},{"Prefix":"п.п.","Label":"п.п. Багуцічы, Гомельская вобл., Беларусь","LabelTail":"Гомельская вобл., Беларусь","Value":"Багуцічы","Gid":"862","Lon":51.760833333333,"Lat":29.126388888889,"Exp":"2100258","Ecp":"151234"},{"Prefix":"п.п.","Label":"п.п. Багушоўка, Гродзенская вобл., Беларусь","LabelTail":"Гродзенская вобл., Беларусь","Value":"Багушоўка","Gid":"107","Lon":53.760833333333,"Lat":23.960555555556,"Exp":"2100547","Ecp":"135227"},{"Prefix":"ст.","Label":"ст. Багушэўская, Віцебская вобл., Беларусь","LabelTail":"Віцебская вобл., Беларусь","Value":"Багушэўская","Gid":"40","Lon":54.8425,"Lat":30.206944444444,"Exp":"2100015","Ecp":"167001"},{"Prefix":"п.п.","Label":"п.п. Бакуны, Гродзенская вобл., Беларусь","LabelTail":"Гродзенская вобл., Беларусь","Value":"Бакуны","Gid":"771","Lon":53.564166666667,"Lat":23.7225,"Exp":"2100895","Ecp":"135250"},{"Prefix":"п.п.","Label":"п.п. Бальніца, г. Жлобін, Гомельская вобл., Беларусь","LabelTail":"г. Жлобін, Гомельская вобл., Беларусь","Value":"Бальніца","Gid":"387","Lon":52.904722222222,"Lat":30.003055555556,"Exp":"2100806","Ecp":"155856"},{"Prefix":"п.п.","Label":"п.п. Баравая, Брэсцкая вобл., Беларусь","LabelTail":"Брэсцкая вобл., Беларусь","Value":"Баравая","Gid":"79","Lon":51.956388888889,"Lat":23.897222222222,"Exp":"2101049","Ecp":"132534"},{"Prefix":"ст.","Label":"ст. Баравое, Віцебская вобл., Беларусь","LabelTail":"Віцебская вобл., Беларусь","Value":"Баравое","Gid":"182","Lon":55.214444444444,"Lat":28.079444444444,"Exp":"2100247","Ecp":"165103"},{"Prefix":"ст.","Label":"ст. Баравуха, Віцебская вобл., Беларусь","LabelTail":"Віцебская вобл., Беларусь","Value":"Баравуха","Gid":"144","Lon":55.584444444444,"Lat":28.596111111111,"Exp":"2100032","Ecp":"162116"},{"Prefix":"ст.","Label":"ст. Баранавічы Паўночныя, г. Баранавічы, Брэсцкая вобл., Беларусь","LabelTail":"г. Баранавічы, Брэсцкая вобл., Беларусь","Value":"Баранавічы Паўночныя","Gid":"49","Lon":53.153888888889,"Lat":26.015277777778,"Exp":"2100241","Ecp":"138437"},{"Prefix":"ст.","Label":"ст. Баранавічы Цэнтральныя, г. Баранавічы, Брэсцкая вобл., Беларусь","LabelTail":"г. Баранавічы, Брэсцкая вобл., Беларусь","Value":"Баранавічы Цэнтральныя","Gid":"48","Lon":53.131944444444,"Lat":25.993888888889,"Exp":"2100020","Ecp":"138507"},{"Prefix":"ст.","Label":"ст. Бараўцы, Брэсцкая вобл., Беларусь","LabelTail":"Брэсцкая вобл., Беларусь","Value":"Бараўцы","Gid":"618","Lon":53.106666666667,"Lat":25.938333333333,"Exp":"2100539","Ecp":"137129"},{"Prefix":"п.п.","Label":"п.п. Баркалабава, Магілёўская вобл., Беларусь","LabelTail":"Магілёўская вобл., Беларусь","Value":"Баркалабава","Gid":"368","Lon":53.595,"Lat":30.238888888889,"Exp":"2100266","Ecp":"156127"},{"Prefix":"п.п.","Label":"п.п. Барок, Гомельская вобл., Беларусь","LabelTail":"Гомельская вобл., Беларусь","Value":"Барок","Gid":"600","Lon":52.273055555556,"Lat":31.320833333333,"Exp":"2100211","Ecp":"150636"},{"Prefix":"п.п.","Label":"п.п. Бароўка, г. Магілёў, Магілёўская вобл., Беларусь","LabelTail":"г. Магілёў, Магілёўская вобл., Беларусь","Value":"Бароўка","Gid":"732","Lon":53.867222222222,"Lat":30.443888888889,"Exp":"2100820","Ecp":"157739"},{"Prefix":"п.п.","Label":"п.п. Барсукі, Мінская вобл., Беларусь","LabelTail":"Мінская вобл., Беларусь","Value":"Барсукі","Gid":"278","Lon":54.065555555556,"Lat":28.280277777778,"Exp":"2101014","Ecp":"141336"},{"Prefix":"ст.","Label":"ст. Барсукі, Магілёўская вобл., Беларусь","LabelTail":"Магілёўская вобл., Беларусь","Value":"Барсукі","Gid":"366","Lon":53.661944444444,"Lat":30.260833333333,"Exp":"2100267","Ecp":"156134"},{"Prefix":"ст.","Label":"ст. Барысаў, г. Барысаў, Мінская вобл., Беларусь","LabelTail":"г. Барысаў, Мінская вобл., Беларусь","Value":"Барысаў","Gid":"289","Lon":54.22,"Lat":28.530833333333,"Exp":"2100305","Ecp":"141406"},{"Prefix":"ст.","Label":"ст. Бастуны, Гродзенская вобл., Беларусь","LabelTail":"Гродзенская вобл., Беларусь","Value":"Бастуны","Gid":"240","Lon":54.0775,"Lat":25.293333333333,"Exp":"2100163","Ecp":"137805"},{"Prefix":"п.п.","Label":"п.п. Бастынь, Брэсцкая вобл., Беларусь","LabelTail":"Брэсцкая вобл., Беларусь","Value":"Бастынь","Gid":"638","Lon":52.393611111111,"Lat":26.760833333333,"Exp":"2100683","Ecp":"139478"},{"Prefix":"п.п.","Label":"п.п. Баталі, Віцебская вобл., Беларусь","LabelTail":"Віцебская вобл., Беларусь","Value":"Баталі","Gid":"696","Lon":55.388611111111,"Lat":30.083333333333,"Exp":"2100872","Ecp":"160341"},{"Prefix":"п.п.","Label":"п.п. Батча, Брэсцкая вобл., Беларусь","LabelTail":"Брэсцкая вобл., Беларусь","Value":"Батча","Gid":"646","Lon":52.217777777778,"Lat":24.170277777778,"Exp":"2100576","Ecp":"131283"},{"Prefix":"п.п.","Label":"п.п. Баяры, Мінская вобл., Беларусь","LabelTail":"Мінская вобл., Беларусь","Value":"Баяры","Gid":"267","Lon":54.191388888889,"Lat":27.084166666667,"Exp":"2100581","Ecp":"142324"},{"Prefix":"ст.","Label":"ст. Бярэзіна, г. Бабруйск, Магілёўская вобл., Беларусь","LabelTail":"г. Бабруйск, Магілёўская вобл., Беларусь","Value":"Бярэзіна","Gid":"629","Lon":53.130555555556,"Lat":29.249444444444,"Exp":"2100040","Ecp":"147703"},{"Prefix":"п.п.","Label":"п.п. Дзеднава, г. Бабруйск, Магілёўская вобл., Беларусь","LabelTail":"г. Бабруйск, Магілёўская вобл., Беларусь","Value":"Дзеднава","Gid":"924","Lon":53.134166666667,"Lat":29.172222222222,"Exp":"2100911","Ecp":"147027"},{"Prefix":"п.п.","Label":"п.п. Кісялевічы, г. Бабруйск, Магілёўская вобл., Беларусь","LabelTail":"г. Бабруйск, Магілёўская вобл., Беларусь","Value":"Кісялевічы","Gid":"513","Lon":53.153333333333,"Lat":29.161111111111,"Exp":"2100049","Ecp":"146912"},{"Prefix":"п.п.","Label":"п.п. Лакаматыўнае Дэпо, г. Баранавічы, Брэсцкая вобл., Беларусь","LabelTail":"г. Баранавічы, Брэсцкая вобл., Беларусь","Value":"Лакаматыўнае Дэпо","Gid":"479","Lon":53.118888888889,"Lat":25.970277777778,"Exp":"2100898","Ecp":"138973"},{"Prefix":"ст.","Label":"ст. Белаазёрск, г. Белаазёрск, Брэсцкая вобл., Беларусь","LabelTail":"г. Белаазёрск, Брэсцкая вобл., Беларусь","Value":"Белаазёрск","Gid":"21","Lon":52.466666666667,"Lat":25.186944444444,"Exp":"2101065","Ecp":"133804"},{"Prefix":"п.п.","Label":"п.п. Белагруда, Гродзенская вобл., Беларусь","LabelTail":"Гродзенская вобл., Беларусь","Value":"Белагруда","Gid":"313","Lon":53.786666666667,"Lat":25.178333333333,"Exp":"2100739","Ecp":"137542"},{"Prefix":"ст.","Label":"ст. Беларусь, г. Заслаўе, Мінская вобл., Беларусь","LabelTail":"г. Заслаўе, Мінская вобл., Беларусь","Value":"Беларусь","Gid":"47","Lon":54.008611111111,"Lat":27.283888888889,"Exp":"2100106","Ecp":"143609"},{"Prefix":"п.п.","Label":"п.п. Беласельскі, Гродзенская вобл., Беларусь","LabelTail":"Гродзенская вобл., Беларусь","Value":"Беласельскі","Gid":"219","Lon":54.456666666667,"Lat":26.456111111111,"Exp":"2100869","Ecp":"163316"},{"Prefix":"п.п.","Label":"п.п. Бель, Магілёўская вобл., Беларусь","LabelTail":"Магілёўская вобл., Беларусь","Value":"Бель","Gid":"364","Lon":53.802777777778,"Lat":31.660277777778,"Exp":"2100316","Ecp":"158233"},{"Prefix":"п.п.","Label":"п.п. Беніслаўскага, Віцебская вобл., Беларусь","LabelTail":"Віцебская вобл., Беларусь","Value":"Беніслаўскага","Gid":"132","Lon":55.714722222222,"Lat":28.215,"Exp":"2100268","Ecp":"161823"},{"Prefix":"ст.","Label":"ст. Беняконі, Гродзенская вобл., Беларусь","LabelTail":"Гродзенская вобл., Беларусь","Value":"Беняконі","Gid":"241","Lon":54.244444444444,"Lat":25.352777777778,"Exp":"2100232","Ecp":"137909"},{"Prefix":"п.п.","Label":"п.п. Беражок, Мінская вобл., Беларусь","LabelTail":"Мінская вобл., Беларусь","Value":"Беражок","Gid":"290","Lon":54.296944444444,"Lat":28.931388888889,"Exp":"2100456","Ecp":"141618"},{"Prefix":"п.п.","Label":"п.п. Беразінскае, Мінская вобл., Беларусь","LabelTail":"Мінская вобл., Беларусь","Value":"Беразінскае","Gid":"262","Lon":54.217777777778,"Lat":26.614444444444,"Exp":"2100726","Ecp":"162633"},{"Prefix":"ст.","Label":"ст. Бераставіца, Гродзенская вобл., Беларусь","LabelTail":"Гродзенская вобл., Беларусь","Value":"Бераставіца","Gid":"24","Lon":53.115833333333,"Lat":23.968333333333,"Exp":"2100155","Ecp":"136200"},{"Prefix":"ст.","Label":"ст. Бяроза Картузская, г. Бяроза, Брэсцкая вобл., Беларусь","LabelTail":"г. Бяроза, Брэсцкая вобл., Беларусь","Value":"Бяроза Картузская","Gid":"946","Lon":52.533333333333,"Lat":24.899444444444,"Exp":"2100030","Ecp":"133700"},{"Prefix":"п.п.","Label":"п.п. Бяроза-Горад, г. Бяроза, Брэсцкая вобл., Беларусь","LabelTail":"г. Бяроза, Брэсцкая вобл., Беларусь","Value":"Бяроза-Горад","Gid":"910","Lon":52.5475,"Lat":24.970277777778,"Exp":"2100794","Ecp":"134116"},{"Prefix":"п.п.","Label":"п.п. Бібкаўшчына, Магілёўская вобл., Беларусь","LabelTail":"Магілёўская вобл., Беларусь","Value":"Бібкаўшчына","Gid":"512","Lon":53.183055555556,"Lat":29.035555555556,"Exp":"2100577","Ecp":"146823"},{"Prefix":"ст.","Label":"ст. Бігосава, Віцебская вобл., Беларусь","LabelTail":"Віцебская вобл., Беларусь","Value":"Бігосава","Gid":"128","Lon":55.834444444444,"Lat":27.7375,"Exp":"2100031","Ecp":"161700"},{"Prefix":"п.п.","Label":"п.п. Бірулічы, Гродзенская вобл., Беларусь","LabelTail":"Гродзенская вобл., Беларусь","Value":"Бірулічы","Gid":"350","Lon":53.5875,"Lat":24.160833333333,"Exp":"2100748","Ecp":"135349"},{"Prefix":"п.п.","Label":"п.п. Благавічы, Магілёўская вобл., Беларусь","LabelTail":"Магілёўская вобл., Беларусь","Value":"Благавічы","Gid":"740","Lon":53.794722222222,"Lat":30.839444444444,"Exp":"2100578","Ecp":"157921"},{"Prefix":"п.п.","Label":"п.п. Блажэўшчына, Віцебская вобл., Беларусь","LabelTail":"Віцебская вобл., Беларусь","Value":"Блажэўшчына","Gid":"203","Lon":54.738888888889,"Lat":29.443055555556,"Exp":"2100110","Ecp":"168339"},{"Prefix":"п.п.","Label":"п.п. Блужа, Мінская вобл., Беларусь","LabelTail":"Мінская вобл., Беларусь","Value":"Блужа","Gid":"443","Lon":53.4375,"Lat":28.226944444444,"Exp":"2100579","Ecp":"145426"},{"Prefix":"ст.","Label":"ст. Бобр, Мінская вобл., Беларусь","LabelTail":"Мінская вобл., Беларусь","Value":"Бобр","Gid":"294","Lon":54.319722222222,"Lat":29.261111111111,"Exp":"2100012","Ecp":"141800"},{"Prefix":"п.п.","Label":"п.п. Бобрыч, Гомельская вобл., Беларусь","LabelTail":"Гомельская вобл., Беларусь","Value":"Бобрыч","Gid":"677","Lon":52.209444444444,"Lat":28.430833333333,"Exp":"2100650","Ecp":"153526"},{"Prefix":"п.п.","Label":"п.п. Боні, Магілёўская вобл., Беларусь","LabelTail":"Магілёўская вобл., Беларусь","Value":"Боні","Gid":"383","Lon":53.200555555556,"Lat":32.209722222222,"Exp":"2100843","Ecp":"159043"},{"Prefix":"ст.","Label":"ст. Боркавічы, Віцебская вобл., Беларусь","LabelTail":"Віцебская вобл., Беларусь","Value":"Боркавічы","Gid":"131","Lon":55.670555555556,"Lat":28.324444444444,"Exp":"2100233","Ecp":"161908"},{"Prefix":"п.п.","Label":"п.п. Боркі, Брэсцкая вобл., Беларусь","LabelTail":"Брэсцкая вобл., Беларусь","Value":"Боркі","Gid":"521","Lon":52.778055555556,"Lat":25.410277777778,"Exp":"2100885","Ecp":"134224"},{"Prefix":"п.п.","Label":"п.п. Бярэзіна, Барысаў, Мінская вобл., Беларусь","LabelTail":"Барысаў, Мінская вобл., Беларусь","Value":"Бярэзіна","Gid":"291","Lon":54.241111111111,"Lat":28.552777777778,"Exp":"2100687","Ecp":"141410"},{"Prefix":"г.","Label":"г. Брэст, Брэсцкая вобл., Беларусь","LabelTail":"Брэсцкая вобл., Беларусь","Value":"Брэст","Gid":"17","Lon":52.103333333333,"Lat":23.715555555556,"Exp":"2100200","Ecp":"130007"},{"Prefix":"ст.","Label":"ст. Брэст Цэнтральны, г. Брест, Брэсцкая вобл., Беларусь","LabelTail":"г. Брест, Брэсцкая вобл., Беларусь","Value":"Брэст Цэнтральны","Gid":"17","Lon":52.101111111111,"Lat":23.680555555556,"Exp":"2100035","Ecp":"130007"},{"Prefix":"ст.","Label":"ст. Брэст Палескі, г. Брест, Брэсцкая вобл., Беларусь","LabelTail":"г. Брест, Брэсцкая вобл., Беларусь","Value":"Брэст Палескі","Gid":"914","Lon":52.094722222222,"Lat":23.71,"Exp":"2100516","Ecp":"130308"},{"Prefix":"ст.","Label":"ст. Брэст Паўднёвы, г. Брест, Брэсцкая вобл., Беларусь","LabelTail":"г. Брест, Брэсцкая вобл., Беларусь","Value":"Брэст Паўднёвы","Gid":"916","Lon":52.064722222222,"Lat":23.749444444444,"Exp":"2101042","Ecp":"130837"},{"Prefix":"ст.","Label":"ст. Брэст Паўночны, г. Брест, Брэсцкая вобл., Беларусь","LabelTail":"г. Брест, Брэсцкая вобл., Беларусь","Value":"Брэст Паўночны","Gid":"623","Lon":52.111666666667,"Lat":23.654722222222,"Exp":"2100670","Ecp":"130100"},{"Prefix":"ст.","Label":"ст. Брэст Усходні, г. Брест, Брэсцкая вобл., Беларусь","LabelTail":"г. Брест, Брэсцкая вобл., Беларусь","Value":"Брэст Усходні","Gid":"624","Lon":52.110277777778,"Lat":23.7275,"Exp":"2100188","Ecp":"130204"},{"Prefix":"г.","Label":"г. Бяроза, Брэсцкая вобл., Беларусь","LabelTail":"Брэсцкая вобл., Беларусь","Value":"Бяроза","Gid":"910","Lon":24.966666666667,"Lat":52.55,"Exp":"2100003","Ecp":"134116"},{"Prefix":"п.п.","Label":"п.п. Брадзішча, Магілёўская вобл., Беларусь","LabelTail":"Магілёўская вобл., Беларусь","Value":"Брадзішча","Gid":"511","Lon":53.269166666667,"Lat":28.775555555556,"Exp":"2100329","Ecp":"146452"},{"Prefix":"п.п.","Label":"п.п. Браніслаў, Гомельская вобл., Беларусь","LabelTail":"Гомельская вобл., Беларусь","Value":"Браніслаў","Gid":"674","Lon":52.227777777778,"Lat":27.605555555556,"Exp":"2100684","Ecp":"152129"},{"Prefix":"ст.","Label":"ст. Брожа, Магілёўская вобл., Беларусь","LabelTail":"Магілёўская вобл., Беларусь","Value":"Брожа","Gid":"926","Lon":52.951666666667,"Lat":29.112777777778,"Exp":"2100121","Ecp":"147506"},{"Prefix":"ст.","Label":"ст. Бронная Гара, Брэсцкая вобл., Беларусь","LabelTail":"Брэсцкая вобл., Беларусь","Value":"Бронная Гара","Gid":"908","Lon":52.605833333333,"Lat":25.09,"Exp":"2100189","Ecp":"134008"},{"Prefix":"ст.","Label":"ст. Брузгі, Гродзенская вобл., Беларусь","LabelTail":"Гродзенская вобл., Беларусь","Value":"Брузгі","Gid":"773","Lon":53.555555555556,"Lat":23.666388888889,"Exp":"2100897","Ecp":"135104"},{"Prefix":"ст.","Label":"ст. Брынёва, Гомельская вобл., Беларусь","LabelTail":"Гомельская вобл., Беларусь","Value":"Брынёва","Gid":"877","Lon":52.250833333333,"Lat":27.995,"Exp":"2101035","Ecp":"153314"},{"Prefix":"п.п.","Label":"п.п. Брыцалавічы, Магілёўская вобл., Беларусь","LabelTail":"Магілёўская вобл., Беларусь","Value":"Брыцалавічы","Gid":"453","Lon":53.353055555556,"Lat":28.844444444444,"Exp":"2100072","Ecp":"146429"},{"Prefix":"п.п.","Label":"п.п. Паўднёвы Захад, г. Брест, Брэсцкая вобл., Беларусь","LabelTail":"г. Брест, Брэсцкая вобл., Беларусь","Value":"Паўднёвы Захад","Gid":"915","Lon":52.073888888889,"Lat":23.734722222222,"Exp":"2100421","Ecp":"130312"},{"Prefix":"п.п.","Label":"п.п. Скокі, г. Брест, Брэсцкая вобл., Беларусь","LabelTail":"г. Брест, Брэсцкая вобл., Беларусь","Value":"Скокі","Gid":"622","Lon":52.136388888889,"Lat":23.6275,"Exp":"2100708","Ecp":"132252"},{"Prefix":"ст.","Label":"ст. Буда-Кашалёўская, г. Буда-Кашалёва, Гомельская вобл., Беларусь","LabelTail":"г. Буда-Кашалёва, Гомельская вобл., Беларусь","Value":"Буда-Кашалёўская","Gid":"400","Lon":52.712777777778,"Lat":30.5675,"Exp":"2100025","Ecp":"155201"},{"Prefix":"п.п.","Label":"п.п. Будаўнік, Мінская вобл., Беларусь","LabelTail":"Мінская вобл., Беларусь","Value":"Будаўнік","Gid":"532","Lon":52.808611111111,"Lat":27.5725,"Exp":"2100433","Ecp":"148212"},{"Prefix":"п.п.","Label":"п.п. Будацень, Гомельская вобл., Беларусь","LabelTail":"Гомельская вобл., Беларусь","Value":"Будацень","Gid":"576","Lon":52.438611111111,"Lat":31.0875,"Exp":"2100818","Ecp":"150551"},{"Prefix":"ст.","Label":"ст. Будслаў, Мінская вобл., Беларусь","LabelTail":"Мінская вобл., Беларусь","Value":"Будслаў","Gid":"194","Lon":54.791111111111,"Lat":27.406944444444,"Exp":"2100027","Ecp":"163802"},{"Prefix":"п.п.","Label":"п.п. Буды, Брэсцкая вобл., Беларусь","LabelTail":"Брэсцкая вобл., Беларусь","Value":"Буды","Gid":"525","Lon":52.867222222222,"Lat":26.3625,"Exp":"2100144","Ecp":"139618"},{"Prefix":"ст.","Label":"ст. Буйнічы, Магілёўская вобл., Беларусь","LabelTail":"Магілёўская вобл., Беларусь","Value":"Буйнічы","Gid":"743","Lon":53.868333333333,"Lat":30.248611111111,"Exp":"2100269","Ecp":"156401"},{"Prefix":"п.п.","Label":"п.п. Бумажкова, Гомельская вобл., Беларусь","LabelTail":"Гомельская вобл., Беларусь","Value":"Бумажкова","Gid":"929","Lon":52.705555555556,"Lat":28.895833333333,"Exp":"2100582","Ecp":"147328"},{"Prefix":"ст.","Label":"ст. Бурбін, Віцебская вобл., Беларусь","LabelTail":"Віцебская вобл., Беларусь","Value":"Бурбін","Gid":"213","Lon":54.712777777778,"Lat":29.65,"Exp":"2100669","Ecp":"168606"},{"Prefix":"п.п.","Label":"п.п. Буслы, Гомельская вобл., Беларусь","LabelTail":"Гомельская вобл., Беларусь","Value":"Буслы","Gid":"407","Lon":52.641388888889,"Lat":30.721111111111,"Exp":"2100583","Ecp":"155240"},{"Prefix":"п.п.","Label":"п.п. Бухлічы, Брэсцкая вобл., Беларусь","LabelTail":"Брэсцкая вобл., Беларусь","Value":"Бухлічы","Gid":"101","Lon":51.800555555556,"Lat":26.781388888889,"Exp":"2101314","Ecp":"139228"},{"Prefix":"п.п.","Label":"п.п. Бушаўка, Гомельская вобл., Беларусь","LabelTail":"Гомельская вобл., Беларусь","Value":"Бушаўка","Gid":"399","Lon":52.690555555556,"Lat":30.615555555556,"Exp":"2100338","Ecp":"155216"},{"Prefix":"ст.","Label":"ст. Быхаў, Магілёўская вобл., Беларусь","LabelTail":"Магілёўская вобл., Беларусь","Value":"Быхаў","Gid":"370","Lon":53.515277777778,"Lat":30.230555555556,"Exp":"2100060","Ecp":"156100"},{"Prefix":"п.п.","Label":"п.п. Быцень, Брэсцкая вобл., Беларусь","LabelTail":"Брэсцкая вобл., Беларусь","Value":"Быцень","Gid":"522","Lon":52.876666666667,"Lat":25.617222222222,"Exp":"2100584","Ecp":"134313"},{"Prefix":"ст.","Label":"ст. Бычыха, Віцебская вобл., Беларусь","LabelTail":"Віцебская вобл., Беларусь","Value":"Бычыха","Gid":"761","Lon":55.676388888889,"Lat":29.977777777778,"Exp":"2100238","Ecp":"166210"},{"Prefix":"п.п.","Label":"п.п. Бязверхавічы, Мінская вобл., Беларусь","LabelTail":"Мінская вобл., Беларусь","Value":"Бязверхавічы","Gid":"890","Lon":53.028888888889,"Lat":27.435277777778,"Exp":"2100830","Ecp":"148655"},{"Prefix":"ст.","Label":"ст. Бялынкавічы, Магілёўская вобл., Беларусь","LabelTail":"Магілёўская вобл., Беларусь","Value":"Бялынкавічы","Gid":"382","Lon":53.233055555556,"Lat":32.161388888889,"Exp":"2100093","Ecp":"159005"},{"Prefix":"п.п.","Label":"п.п. Бярозавы Гай, Брэсцкая вобл., Беларусь","LabelTail":"Брэсцкая вобл., Беларусь","Value":"Бярозавы Гай","Gid":"123","Lon":52.045277777778,"Lat":23.775833333333,"Exp":"2101044","Ecp":"130825"},{"Prefix":"ст.","Label":"ст. Бярозкі, Гомельская вобл., Беларусь","LabelTail":"Гомельская вобл., Беларусь","Value":"Бярозкі","Gid":"580","Lon":52.391388888889,"Lat":31.100555555556,"Exp":"2100571","Ecp":"150212"},{"Prefix":"п.п.","Label":"п.п. Бярэжа, Мінская вобл., Беларусь","LabelTail":"Мінская вобл., Беларусь","Value":"Бярэжа","Gid":"325","Lon":53.716111111111,"Lat":27.270833333333,"Exp":"2101053","Ecp":"144527"},{"Prefix":"п.п.","Label":"п.п. Бярэзаўцы, Гродзенская вобл., Беларусь","LabelTail":"Гродзенская вобл., Беларусь","Value":"Бярэзаўцы","Gid":"245","Lon":54.000277777778,"Lat":25.713888888889,"Exp":"2100736","Ecp":"162313"},{"Prefix":"г.","Label":"г. Ваўкавыск, Гродзенская вобл., Беларусь","LabelTail":"Гродзенская вобл., Беларусь","Value":"Ваўкавыск","Gid":"25","Lon":53.138611111111,"Lat":24.413888888889,"Exp":"2100115","Ecp":"136709"},{"Prefix":"п.п.","Label":"п.п. Вайганы, Мінская вобл., Беларусь","LabelTail":"Мінская вобл., Беларусь","Value":"Вайганы","Gid":"247","Lon":54.160277777778,"Lat":26.093611111111,"Exp":"2100732","Ecp":"162436"},{"Prefix":"п.п.","Label":"п.п. Вайцешын, Брэсцкая вобл., Беларусь","LabelTail":"Брэсцкая вобл., Беларусь","Value":"Вайцешын","Gid":"909","Lon":52.5125,"Lat":25.155833333333,"Exp":"2100888","Ecp":"134243"},{"Prefix":"ст.","Label":"ст. Валаскоўня, Магілёўская вобл., Беларусь","LabelTail":"Магілёўская вобл., Беларусь","Value":"Валаскоўня","Gid":"375","Lon":53.449722222222,"Lat":32.040555555556,"Exp":"2100587","Ecp":"159113"},{"Prefix":"п.п.","Label":"п.п. Валатава, г. Гомель, Гомельская вобл., Беларусь","LabelTail":"г. Гомель, Гомельская вобл., Беларусь","Value":"Валатава","Gid":"574","Lon":52.477777777778,"Lat":31.0325,"Exp":"2100817","Ecp":"150547"},{"Prefix":"п.п.","Label":"п.п. Валодзькі, Віцебская вобл., Беларусь","LabelTail":"Віцебская вобл., Беларусь","Value":"Валодзькі","Gid":"197","Lon":54.989444444444,"Lat":27.703333333333,"Exp":"2100586","Ecp":"163922"},{"Prefix":"ст.","Label":"ст. Валожын, Мінская вобл., Беларусь","LabelTail":"Мінская вобл., Беларусь","Value":"Валожын","Gid":"252","Lon":54.22,"Lat":26.448888888889,"Exp":"2100057","Ecp":"162607"},{"Prefix":"п.п.","Label":"п.п. Валокі, Магілёўская вобл., Беларусь","LabelTail":"Магілёўская вобл., Беларусь","Value":"Валокі","Gid":"723","Lon":54.043611111111,"Lat":30.284444444444,"Exp":"2100406","Ecp":"156539"},{"Prefix":"п.п.","Label":"п.п. Валоўнікі, Магілёўская вобл., Беларусь","LabelTail":"Магілёўская вобл., Беларусь","Value":"Валоўнікі","Gid":"362","Lon":53.882777777778,"Lat":31.551666666667,"Exp":"2100793","Ecp":"158252"},{"Prefix":"п.п.","Label":"п.п. Ванелевічы, Мінская вобл., Беларусь","LabelTail":"Мінская вобл., Беларусь","Value":"Ванелевічы","Gid":"505","Lon":53.082777777778,"Lat":27.148333333333,"Exp":"2100828","Ecp":"139143"},{"Prefix":"ст.","Label":"ст. Варапаева, Віцебская вобл., Беларусь","LabelTail":"Віцебская вобл., Беларусь","Value":"Варапаева","Gid":"51","Lon":55.141666666667,"Lat":27.203888888889,"Exp":"2100047","Ecp":"164408"},{"Prefix":"п.п.","Label":"п.п. Варацішча, Мінская вобл., Беларусь","LabelTail":"Мінская вобл., Беларусь","Value":"Варацішча","Gid":"430","Lon":53.353333333333,"Lat":26.569444444444,"Exp":"2100554","Ecp":"138634"},{"Prefix":"ст.","Label":"ст. Васілевічы, г. Васілевічы, Гомельская вобл., Беларусь","LabelTail":"г. Васілевічы, Гомельская вобл., Беларусь","Value":"Васілевічы","Gid":"855","Lon":52.255,"Lat":29.828055555556,"Exp":"2100245","Ecp":"154406"},{"Prefix":"п.п.","Label":"п.п. Васькаўшчына, Віцебская вобл., Беларусь","LabelTail":"Віцебская вобл., Беларусь","Value":"Васькаўшчына","Gid":"714","Lon":54.528333333333,"Lat":30.344444444444,"Exp":"2100668","Ecp":"168752"},{"Prefix":"ст.","Label":"ст. Ваўкавыск Цэнтральны, г. Ваўкавыск, Гродзенская вобл., Беларусь","LabelTail":"г. Ваўкавыск, Гродзенская вобл., Беларусь","Value":"Ваўкавыск Цэнтральны","Gid":"25","Lon":53.138611111111,"Lat":24.413888888889,"Exp":"2100115","Ecp":"136709"},{"Prefix":"п.п.","Label":"п.п. Ваўкавыск-Горад, г. Ваўкавыск, Гродзенская вобл., Беларусь","LabelTail":"г. Ваўкавыск, Гродзенская вобл., Беларусь","Value":"Ваўкавыск-Горад","Gid":"466","Lon":53.153333333333,"Lat":24.447777777778,"Exp":"2100276","Ecp":"136713"},{"Prefix":"ст.","Label":"ст. Варонеж Вжа, Беларусь","LabelTail":"","Value":"Варонеж Вжа","Gid":"0","Lon":0.0,"Lat":0.0,"Exp":"2017800","Ecp":"0"},{"Prefix":"п.п.","Label":"п.п. Ведрыч, Гомельская вобл., Беларусь","LabelTail":"Гомельская вобл., Беларусь","Value":"Ведрыч","Gid":"695","Lon":52.251388888889,"Lat":29.923333333333,"Exp":"2100273","Ecp":"154410"},{"Prefix":"ст.","Label":"ст. Вендрыж, Магілёўская вобл., Беларусь","LabelTail":"Магілёўская вобл., Беларусь","Value":"Вендрыж","Gid":"826","Lon":53.803611111111,"Lat":30.037222222222,"Exp":"2100081","Ecp":"157423"},{"Prefix":"п.п.","Label":"п.п. Веравойша, Віцебская вобл., Беларусь","LabelTail":"Віцебская вобл., Беларусь","Value":"Веравойша","Gid":"716","Lon":54.516111111111,"Lat":30.278888888889,"Exp":"2101006","Ecp":"142177"},{"Prefix":"ст.","Label":"ст. Верамейкі, Магілёўская вобл., Беларусь","LabelTail":"Магілёўская вобл., Беларусь","Value":"Верамейкі","Gid":"822","Lon":53.762222222222,"Lat":31.280833333333,"Exp":"2100065","Ecp":"158106"},{"Prefix":"п.п.","Label":"п.п. Верасы, Брэсцкая вобл., Беларусь","LabelTail":"Брэсцкая вобл., Беларусь","Value":"Верасы","Gid":"118","Lon":52.001666666667,"Lat":23.712777777778,"Exp":"2100824","Ecp":"130399"},{"Prefix":"п.п.","Label":"п.п. Верацеі, Віцебская вобл., Беларусь","LabelTail":"Віцебская вобл., Беларусь","Value":"Верацеі","Gid":"173","Lon":55.1375,"Lat":27.421666666667,"Exp":"2100877","Ecp":"164431"},{"Prefix":"ст.","Label":"ст. Верхнядзвінск, Віцебская вобл., Беларусь","LabelTail":"Віцебская вобл., Беларусь","Value":"Верхнядзвінск","Gid":"129","Lon":55.816666666667,"Lat":27.94,"Exp":"2100105","Ecp":"161804"},{"Prefix":"п.п.","Label":"п.п. Весялоўскі, Мінская вобл., Беларусь","LabelTail":"Мінская вобл., Беларусь","Value":"Весялоўскі","Gid":"449","Lon":53.389722222222,"Lat":28.308611111111,"Exp":"2100328","Ecp":"145445"},{"Prefix":"п.п.","Label":"п.п. Ветрына, Віцебская вобл., Беларусь","LabelTail":"Віцебская вобл., Беларусь","Value":"Ветрына","Gid":"142","Lon":55.406666666667,"Lat":28.473333333333,"Exp":"2100039","Ecp":"165152"},{"Prefix":"ст.","Label":"ст. Відзібор, Брэсцкая вобл., Беларусь","LabelTail":"Брэсцкая вобл., Беларусь","Value":"Відзібор","Gid":"881","Lon":51.987777777778,"Lat":26.77,"Exp":"2101002","Ecp":"139302"},{"Prefix":"п.п.","Label":"п.п. Відэршчына, Віцебская вобл., Беларусь","LabelTail":"Віцебская вобл., Беларусь","Value":"Відэршчына","Gid":"234","Lon":54.444166666667,"Lat":29.851944444444,"Exp":"2100452","Ecp":"142019"},{"Prefix":"ст.","Label":"ст. Вілейка, г. Вілейка, Мінская вобл., Беларусь","LabelTail":"г. Вілейка, Мінская вобл., Беларусь","Value":"Вілейка","Gid":"221","Lon":54.502222222222,"Lat":26.928055555556,"Exp":"2100265","Ecp":"163602"},{"Prefix":"ст.","Label":"ст. Вірскі, г. Жлобін, Гомельская вобл., Беларусь","LabelTail":"г. Жлобін, Гомельская вобл., Беларусь","Value":"Вірскі","Gid":"389","Lon":52.8825,"Lat":30.086666666667,"Exp":"2100223","Ecp":"155042"},{"Prefix":"ст.","Label":"ст. Віцебск Пасажырскі, г. Віцебск, Віцебская вобл., Беларусь","LabelTail":"г. Віцебск, Віцебская вобл., Беларусь","Value":"Віцебск Пасажырскі","Gid":"612","Lon":55.195,"Lat":30.185,"Exp":"2100050","Ecp":"160002"},{"Prefix":"пп","Label":"пп Грышаны, г. Віцебск, Віцебская вобл., Беларусь","LabelTail":"г. Віцебск, Віцебская вобл., Беларусь","Value":"Грышаны","Gid":"698","Lon":55.178055555556,"Lat":30.098055555556,"Exp":"2100488","Ecp":"160017"},{"Prefix":"п.п.","Label":"п.п. Зеніт, г. Вілейка, Мінская вобл., Беларусь","LabelTail":"г. Вілейка, Мінская вобл., Беларусь","Value":"Зеніт","Gid":"940","Lon":54.481666666667,"Lat":26.886111111111,"Exp":"2100692","Ecp":"162949"},{"Prefix":"ст.","Label":"ст. Чэпіна, г. Віцебск, Віцебская вобл., Беларусь","LabelTail":"г. Віцебск, Віцебская вобл., Беларусь","Value":"Чэпіна","Gid":"755","Lon":55.207222222222,"Lat":30.146666666667,"Exp":"2100776","Ecp":"160303"},{"Prefix":"п.п.","Label":"п.п. Воземля, Гомельская вобл., Беларусь","LabelTail":"Гомельская вобл., Беларусь","Value":"Воземля","Gid":"536","Lon":52.761111111111,"Lat":28.933611111111,"Exp":"2100402","Ecp":"147313"},{"Prefix":"п.п.","Label":"п.п. Войткавічы, Гродзенская вобл., Беларусь","LabelTail":"Гродзенская вобл., Беларусь","Value":"Войткавічы","Gid":"472","Lon":53.151944444444,"Lat":24.572222222222,"Exp":"2100543","Ecp":"136732"},{"Prefix":"ст.","Label":"ст. Вонічы, Магілёўская вобл., Беларусь","LabelTail":"Магілёўская вобл., Беларусь","Value":"Вонічы","Gid":"828","Lon":53.599166666667,"Lat":29.499444444444,"Exp":"2100077","Ecp":"157207"},{"Prefix":"п.п.","Label":"п.п. Воранава, Гродзенская вобл., Беларусь","LabelTail":"Гродзенская вобл., Беларусь","Value":"Воранава","Gid":"28","Lon":54.154444444444,"Lat":25.301111111111,"Exp":"2100722","Ecp":"137816"},{"Prefix":"п.п.","Label":"п.п. Восава, Магілёўская вобл., Беларусь","LabelTail":"Магілёўская вобл., Беларусь","Value":"Восава","Gid":"448","Lon":53.458888888889,"Lat":28.496944444444,"Exp":"2100797","Ecp":"146128"},{"Prefix":"п.п.","Label":"п.п. Восаў, Гомельская вобл., Беларусь","LabelTail":"Гомельская вобл., Беларусь","Value":"Восаў","Gid":"585","Lon":52.019166666667,"Lat":30.004722222222,"Exp":"2100428","Ecp":"154514"},{"Prefix":"п.п.","Label":"п.п. Воўчкавічы, Мінская вобл., Беларусь","LabelTail":"Мінская вобл., Беларусь","Value":"Воўчкавічы","Gid":"328","Lon":53.777222222222,"Lat":27.388888888889,"Exp":"2100473","Ecp":"144616"},{"Prefix":"п.п.","Label":"п.п. Вулька Антопальская, Брэсцкая вобл., Беларусь","LabelTail":"Брэсцкая вобл., Беларусь","Value":"Вулька Антопальская","Gid":"650","Lon":52.183888888889,"Lat":24.855555555556,"Exp":"2100588","Ecp":"132820"},{"Prefix":"п.п.","Label":"п.п. Вулька Лунінецкая, Брэсцкая вобл., Беларусь","LabelTail":"Брэсцкая вобл., Беларусь","Value":"Вулька Лунінецкая","Gid":"663","Lon":52.282222222222,"Lat":26.712777777778,"Exp":"2100693","Ecp":"133452"},{"Prefix":"ст.","Label":"ст. Выгода, Гродзенская вобл., Беларусь","LabelTail":"Гродзенская вобл., Беларусь","Value":"Выгода","Gid":"421","Lon":53.349722222222,"Lat":25.6,"Exp":"2100172","Ecp":"138225"},{"Prefix":"п.п.","Label":"п.п. Выдрэя, Віцебская вобл., Беларусь","LabelTail":"Віцебская вобл., Беларусь","Value":"Выдрэя","Gid":"703","Lon":55.021111111111,"Lat":30.6025,"Exp":"2100491","Ecp":"165720"},{"Prefix":"п.п.","Label":"п.п. Вылазы, Брэсцкая вобл., Беларусь","LabelTail":"Брэсцкая вобл., Беларусь","Value":"Вылазы","Gid":"660","Lon":52.218611111111,"Lat":26.351666666667,"Exp":"2100835","Ecp":"133467"},{"Prefix":"п.п.","Label":"п.п. Высокае-Горад, г. Высокае, Брэсцкая вобл., Беларусь","LabelTail":"г. Высокае, Брэсцкая вобл., Беларусь","Value":"Высокае-Горад","Gid":"110","Lon":52.357222222222,"Lat":23.415277777778,"Exp":"2100863","Ecp":"131713"},{"Prefix":"ст.","Label":"ст. Высокалітоўск, г. Высокае, Брэсцкая вобл., Беларусь","LabelTail":"г. Высокае, Брэсцкая вобл., Беларусь","Value":"Высокалітоўск","Gid":"109","Lon":52.400277777778,"Lat":23.381111111111,"Exp":"2100168","Ecp":"131705"},{"Prefix":"п.п.","Label":"п.п. Вязынка, Мінская вобл., Беларусь","LabelTail":"Мінская вобл., Беларусь","Value":"Вязынка","Gid":"275","Lon":54.0925,"Lat":27.191666666667,"Exp":"2100766","Ecp":"143416"},{"Prefix":"п.п.","Label":"п.п. Вяленскі, Мінская вобл., Беларусь","LabelTail":"Мінская вобл., Беларусь","Value":"Вяленскі","Gid":"442","Lon":53.462777777778,"Lat":28.183055555556,"Exp":"2100326","Ecp":"145411"},{"Prefix":"п.п.","Label":"п.п. Вяндзеж, Мінская вобл., Беларусь","LabelTail":"Мінская вобл., Беларусь","Value":"Вяндзеж","Gid":"440","Lon":53.547222222222,"Lat":28.065,"Exp":"2100324","Ecp":"145337"},{"Prefix":"п.п.","Label":"п.п. Вярба, Брэсцкая вобл., Беларусь","LabelTail":"Брэсцкая вобл., Беларусь","Value":"Вярба","Gid":"112","Lon":52.317777777778,"Lat":23.425833333333,"Exp":"2100713","Ecp":"131724"},{"Prefix":"п.п.","Label":"п.п. Вярхі, Магілёўская вобл., Беларусь","LabelTail":"Магілёўская вобл., Беларусь","Value":"Вярхі","Gid":"445","Lon":53.363888888889,"Lat":28.429166666667,"Exp":"2100442","Ecp":"146011"},{"Prefix":"ст.","Label":"ст. Вярхуціна, Мінская вобл., Беларусь","LabelTail":"Мінская вобл., Беларусь","Value":"Вярхуціна","Gid":"894","Lon":52.966944444444,"Lat":28.049166666667,"Exp":"2100067","Ecp":"149022"},{"Prefix":"ст.","Label":"ст. Вярэйцы, Магілёўская вобл., Беларусь","LabelTail":"Магілёўская вобл., Беларусь","Value":"Вярэйцы","Gid":"837","Lon":53.338888888889,"Lat":28.518888888889,"Exp":"2100274","Ecp":"146109"},{"Prefix":"п.п.","Label":"п.п. Вярэнькі, Віцебская вобл., Беларусь","LabelTail":"Віцебская вобл., Беларусь","Value":"Вярэнькі","Gid":"200","Lon":54.84,"Lat":27.510833333333,"Exp":"2100647","Ecp":"163814"},{"Prefix":"п.п.","Label":"п.п. Вятны, Віцебская вобл., Беларусь","LabelTail":"Віцебская вобл., Беларусь","Value":"Вятны","Gid":"204","Lon":54.753611111111,"Lat":29.371388888889,"Exp":"2100441","Ecp":"168324"},{"Prefix":"п.п.","Label":"п.п. Гавуці, Гродзенская вобл., Беларусь","LabelTail":"Гродзенская вобл., Беларусь","Value":"Гавуці","Gid":"218","Lon":54.496111111111,"Lat":26.269444444444,"Exp":"2100870","Ecp":"163212"},{"Prefix":"п.п.","Label":"п.п. Гадуцішкі, Віцебская вобл., Беларусь","LabelTail":"Віцебская вобл., Беларусь","Value":"Гадуцішкі","Gid":"942","Lon":55.151111111111,"Lat":26.581944444444,"Exp":"2100471","Ecp":"164342"},{"Prefix":"п.п.","Label":"п.п. Гай, Магілёўская вобл., Беларусь","LabelTail":"Магілёўская вобл., Беларусь","Value":"Гай","Gid":"843","Lon":53.238611111111,"Lat":28.896666666667,"Exp":"2100902","Ecp":"146842"},{"Prefix":"п.п.","Label":"п.п. Галошаўка, Віцебская вобл., Беларусь","LabelTail":"Віцебская вобл., Беларусь","Value":"Галошаўка","Gid":"719","Lon":54.475,"Lat":30.071111111111,"Exp":"2100438","Ecp":"142112"},{"Prefix":"ст.","Label":"ст. Галынец, Магілёўская вобл., Беларусь","LabelTail":"Магілёўская вобл., Беларусь","Value":"Галынец","Gid":"747","Lon":53.848888888889,"Lat":30.161944444444,"Exp":"2100526","Ecp":"157508"},{"Prefix":"п.п.","Label":"п.п. Галынка, Гродзенская вобл., Беларусь","LabelTail":"Гродзенская вобл., Беларусь","Value":"Галынка","Gid":"465","Lon":53.116111111111,"Lat":24.364166666667,"Exp":"2100311","Ecp":"136253"},{"Prefix":"ст.","Label":"ст. Галявіцы, Гомельская вобл., Беларусь","LabelTail":"Гомельская вобл., Беларусь","Value":"Галявіцы","Gid":"857","Lon":52.160833333333,"Lat":29.4925,"Exp":"2100198","Ecp":"153850"},{"Prefix":"ст.","Label":"ст. Ганцавічы, г. Ганцавічы, Брэсцкая вобл., Беларусь","LabelTail":"г. Ганцавічы, Брэсцкая вобл., Беларусь","Value":"Ганцавічы","Gid":"11","Lon":52.758333333333,"Lat":26.434722222222,"Exp":"2100220","Ecp":"139603"},{"Prefix":"п.п.","Label":"п.п. Ганчары, Гродзенская вобл., Беларусь","LabelTail":"Гродзенская вобл., Беларусь","Value":"Ганчары","Gid":"309","Lon":53.735833333333,"Lat":25.392777777778,"Exp":"2100721","Ecp":"137627"},{"Prefix":"ст.","Label":"ст. Гарадзец, Брэсцкая вобл., Беларусь","LabelTail":"Брэсцкая вобл., Беларусь","Value":"Гарадзец","Gid":"932","Lon":52.195833333333,"Lat":24.691388888889,"Exp":"2100184","Ecp":"132801"},{"Prefix":"ст.","Label":"ст. Гарадзея, Мінская вобл., Беларусь","LabelTail":"Мінская вобл., Беларусь","Value":"Гарадзея","Gid":"615","Lon":53.314722222222,"Lat":26.537777777778,"Exp":"2100122","Ecp":"138600"},{"Prefix":"ст.","Label":"ст. Гарадзішча, Мінская вобл., Беларусь","LabelTail":"Мінская вобл., Беларусь","Value":"Гарадзішча","Gid":"64","Lon":53.986666666667,"Lat":27.846944444444,"Exp":"2100510","Ecp":"140901"},{"Prefix":"пп","Label":"пп Гараднянскі, Віцебская вобл., Беларусь","LabelTail":"Віцебская вобл., Беларусь","Value":"Гараднянскі","Gid":"713","Lon":54.547222222222,"Lat":30.420833333333,"Exp":"2100685","Ecp":"166418"},{"Prefix":"ст.","Label":"ст. Гарадок, г. Гарадок, Віцебская вобл., Беларусь","LabelTail":"г. Гарадок, Віцебская вобл., Беларусь","Value":"Гарадок","Gid":"37","Lon":55.470833333333,"Lat":30.005,"Exp":"2100255","Ecp":"160604"},{"Prefix":"п.п.","Label":"п.п. Гарадшчына, Магілёўская вобл., Беларусь","LabelTail":"Магілёўская вобл., Беларусь","Value":"Гарадшчына","Gid":"957","Lon":53.899444444444,"Lat":30.258333333333,"Exp":"2101007","Ecp":"157527"},{"Prefix":"ст.","Label":"ст. Гараны, Віцебская вобл., Беларусь","LabelTail":"Віцебская вобл., Беларусь","Value":"Гараны","Gid":"157","Lon":55.424722222222,"Lat":29.034166666667,"Exp":"2100277","Ecp":"161128"},{"Prefix":"п.п.","Label":"п.п. Гарожа, Магілёўская вобл., Беларусь","LabelTail":"Магілёўская вобл., Беларусь","Value":"Гарожа","Gid":"834","Lon":53.327222222222,"Lat":28.768888888889,"Exp":"2100881","Ecp":"146471"},{"Prefix":"ст.","Label":"ст. Гарочычы, Гомельская вобл., Беларусь","LabelTail":"Гомельская вобл., Беларусь","Value":"Гарочычы","Gid":"869","Lon":52.27,"Lat":29.419722222222,"Exp":"2100251","Ecp":"154105"},{"Prefix":"ст.","Label":"ст. Гарынь, Брэсцкая вобл., Беларусь","LabelTail":"Брэсцкая вобл., Беларусь","Value":"Гарынь","Gid":"12","Lon":51.851944444444,"Lat":26.783055555556,"Exp":"2101190","Ecp":"139209"},{"Prefix":"ст.","Label":"ст. Гаўя, Гродзенская вобл., Беларусь","LabelTail":"Гродзенская вобл., Беларусь","Value":"Гаўя","Gid":"322","Lon":53.977222222222,"Lat":25.650833333333,"Exp":"2100061","Ecp":"162309"},{"Prefix":"п.п.","Label":"п.п. Рассвет, г. Ганцавічы, Брэсцкая вобл., Беларусь","LabelTail":"г. Ганцавічы, Брэсцкая вобл., Беларусь","Value":"Рассвет","Gid":"526","Lon":52.7375,"Lat":26.454166666667,"Exp":"2100719","Ecp":"139548"},{"Prefix":"п.п.","Label":"п.п. Геолаг, Гомельская вобл., Беларусь","LabelTail":"Гомельская вобл., Беларусь","Value":"Геолаг","Gid":"854","Lon":52.331944444444,"Lat":30.114166666667,"Exp":"2100812","Ecp":"154463"},{"Prefix":"п.п.","Label":"п.п. Гібулічы, Гродзенская вобл., Беларусь","LabelTail":"Гродзенская вобл., Беларусь","Value":"Гібулічы","Gid":"945","Lon":53.613611111111,"Lat":23.766111111111,"Exp":"2100892","Ecp":"135284"},{"Prefix":"п.п.","Label":"п.п. Глебава Рудня, Магілёўская вобл., Беларусь","LabelTail":"Магілёўская вобл., Беларусь","Value":"Глебава Рудня","Gid":"537","Lon":52.989166666667,"Lat":29.153055555556,"Exp":"2100349","Ecp":"147510"},{"Prefix":"рзд","Label":"рзд Глушаніна, Віцебская вобл., Беларусь","LabelTail":"Віцебская вобл., Беларусь","Value":"Глушаніна","Gid":"156","Lon":55.394166666667,"Lat":29.146388888889,"Exp":"2100485","Ecp":"161113"},{"Prefix":"ст.","Label":"ст. Глыбокае, Віцебская вобл., Беларусь","LabelTail":"Віцебская вобл., Беларусь","Value":"Глыбокае","Gid":"176","Lon":55.132777777778,"Lat":27.671111111111,"Exp":"2100044","Ecp":"164906"},{"Prefix":"п.п.","Label":"п.п. Глядкі, Мінская вобл., Беларусь","LabelTail":"Мінская вобл., Беларусь","Value":"Глядкі","Gid":"530","Lon":52.9125,"Lat":27.547777777778,"Exp":"2100431","Ecp":"148316"},{"Prefix":"г.","Label":"г. Гомель, Гомельская вобл., Беларусь","LabelTail":"Гомельская вобл., Беларусь","Value":"Гомель","Gid":"634","Lon":52.430555555556,"Lat":30.990833333333,"Exp":"2100100","Ecp":"150000"},{"Prefix":"п.п.","Label":"п.п. Гоманаўка, Магілёўская вобл., Беларусь","LabelTail":"Магілёўская вобл., Беларусь","Value":"Гоманаўка","Gid":"451","Lon":53.483888888889,"Lat":28.537777777778,"Exp":"2100799","Ecp":"146132"},{"Prefix":"п.п.","Label":"п.п. Гомель Няцотны, г. Гомель, Гомельская вобл., Беларусь","LabelTail":"г. Гомель, Гомельская вобл., Беларусь","Value":"Гомель Няцотны","Gid":"570","Lon":52.446666666667,"Lat":30.988888888889,"Exp":"2100854","Ecp":"150034"},{"Prefix":"ст.","Label":"ст. Гомель Пасажырскі, г. Гомель, Гомельская вобл., Беларусь","LabelTail":"г. Гомель, Гомельская вобл., Беларусь","Value":"Гомель Пасажырскі","Gid":"634","Lon":52.430555555556,"Lat":30.990833333333,"Exp":"2100100","Ecp":"150000"},{"Prefix":"ст.","Label":"ст. Гомель Паўночны, г. Гомель, Гомельская вобл., Беларусь","LabelTail":"г. Гомель, Гомельская вобл., Беларусь","Value":"Гомель Паўночны","Gid":"572","Lon":52.456111111111,"Lat":30.945,"Exp":"2101021","Ecp":"150138"},{"Prefix":"п.п.","Label":"п.п. Гомель Цотны, г. Гомель, Гомельская вобл., Беларусь","LabelTail":"г. Гомель, Гомельская вобл., Беларусь","Value":"Гомель Цотны","Gid":"573","Lon":52.440555555556,"Lat":30.964722222222,"Exp":"2100417","Ecp":"150119"},{"Prefix":"п.п.","Label":"п.п. Мікольскі Пераезд, г. Гомель, Гомельская вобл., Беларусь","LabelTail":"г. Гомель, Гомельская вобл., Беларусь","Value":"Мікольскі Пераезд","Gid":"631","Lon":52.441388888889,"Lat":30.985555555556,"Exp":"2100416","Ecp":"150123"},{"Prefix":"п.п.","Label":"п.п. Мільча, г. Гомель, Гомельская вобл., Беларусь","LabelTail":"г. Гомель, Гомельская вобл., Беларусь","Value":"Мільча","Gid":"571","Lon":52.441944444444,"Lat":30.928055555556,"Exp":"2100810","Ecp":"150049"},{"Prefix":"ст.","Label":"ст. Навабеліцкая, г. Гомель, Гомельская вобл., Беларусь","LabelTail":"г. Гомель, Гомельская вобл., Беларусь","Value":"Навабеліцкая","Gid":"579","Lon":52.399444444444,"Lat":31.033333333333,"Exp":"2100206","Ecp":"150208"},{"Prefix":"ст.","Label":"ст. Пагодзіна, г. Горкі, Магілёўская вобл., Беларусь","LabelTail":"г. Горкі, Магілёўская вобл., Беларусь","Value":"Пагодзіна","Gid":"5","Lon":54.263888888889,"Lat":30.989722222222,"Exp":"2100295","Ecp":"158500"},{"Prefix":"рзд","Label":"рзд Светач, г. Гомель, Гомельская вобл., Беларусь","LabelTail":"г. Гомель, Гомельская вобл., Беларусь","Value":"Светач","Gid":"561","Lon":52.490833333333,"Lat":30.967222222222,"Exp":"2100231","Ecp":"150024"},{"Prefix":"ст.","Label":"ст. Сож, г. Гомель, Гомельская вобл., Беларусь","LabelTail":"г. Гомель, Гомельская вобл., Беларусь","Value":"Сож","Gid":"632","Lon":52.497777777778,"Lat":30.986388888889,"Exp":"2100447","Ecp":"155714"},{"Prefix":"ст.","Label":"ст. Цэнтраліт, г. Гомель, Гомельская вобл., Беларусь","LabelTail":"г. Гомель, Гомельская вобл., Беларусь","Value":"Цэнтраліт","Gid":"569","Lon":52.430277777778,"Lat":30.903333333333,"Exp":"2100570","Ecp":"154904"},{"Prefix":"ст.","Label":"ст. Гродна, г. Гродна, Гродзенская вобл., Беларусь","LabelTail":"г. Гродна, Гродзенская вобл., Беларусь","Value":"Гродна","Gid":"628","Lon":53.685833333333,"Lat":23.848888888889,"Exp":"2100070","Ecp":"135208"},{"Prefix":"п.п.","Label":"п.п. Грабаўка, Гомельская вобл., Беларусь","LabelTail":"Гомельская вобл., Беларусь","Value":"Грабаўка","Gid":"592","Lon":52.178888888889,"Lat":31.113055555556,"Exp":"2100919","Ecp":"150316"},{"Prefix":"п.п.","Label":"п.п. Грабянёва, Віцебская вобл., Беларусь","LabelTail":"Віцебская вобл., Беларусь","Value":"Грабянёва","Gid":"707","Lon":54.611111111111,"Lat":30.206944444444,"Exp":"2100262","Ecp":"168714"},{"Prefix":"п.п.","Label":"п.п. Града, Магілёўская вобл., Беларусь","LabelTail":"Магілёўская вобл., Беларусь","Value":"Града","Gid":"509","Lon":53.207777777778,"Lat":28.535,"Exp":"2100786","Ecp":"149215"},{"Prefix":"ст.","Label":"ст. Градзянка, Магілёўская вобл., Беларусь","LabelTail":"Магілёўская вобл., Беларусь","Value":"Градзянка","Gid":"34","Lon":53.545833333333,"Lat":28.743333333333,"Exp":"2100531","Ecp":"146306"},{"Prefix":"п.п.","Label":"п.п. Грушаўка, Гомельская вобл., Беларусь","LabelTail":"Гомельская вобл., Беларусь","Value":"Грушаўка","Gid":"605","Lon":52.184166666667,"Lat":31.458333333333,"Exp":"2100445","Ecp":"150710"},{"Prefix":"ст.","Label":"ст. Грыбачы, Віцебская вобл., Беларусь","LabelTail":"Віцебская вобл., Беларусь","Value":"Грыбачы","Gid":"136","Lon":55.764722222222,"Lat":29.997777777778,"Exp":"2100484","Ecp":"160731"},{"Prefix":"п.п.","Label":"п.п. Грынькі, Гродзенская вобл., Беларусь","LabelTail":"Гродзенская вобл., Беларусь","Value":"Грынькі","Gid":"477","Lon":53.076111111111,"Lat":25.150833333333,"Exp":"2100498","Ecp":"136910"},{"Prefix":"ст.","Label":"ст. Грыцавец, Брэсцкая вобл., Беларусь","LabelTail":"Брэсцкая вобл., Беларусь","Value":"Грыцавец","Gid":"900","Lon":53.040277777778,"Lat":25.863055555556,"Exp":"2100126","Ecp":"134506"},{"Prefix":"ст.","Label":"ст. Ласосна, г. Гродна, Гродзенская вобл., Беларусь","LabelTail":"г. Гродна, Гродзенская вобл., Беларусь","Value":"Ласосна","Gid":"627","Lon":53.6525,"Lat":23.801944444444,"Exp":"2100215","Ecp":"134703"},{"Prefix":"п.п.","Label":"п.п. Палескі Парк, г. Гродна, Гродзенская вобл., Беларусь","LabelTail":"г. Гродна, Гродзенская вобл., Беларусь","Value":"Палескі Парк","Gid":"625","Lon":53.692222222222,"Lat":23.865833333333,"Exp":"2101016","Ecp":"135354"},{"Prefix":"п.п.","Label":"п.п. Прыгарадны, г. Гродна, Гродзенская вобл., Беларусь","LabelTail":"г. Гродна, Гродзенская вобл., Беларусь","Value":"Прыгарадны","Gid":"626","Lon":53.659444444444,"Lat":23.817777777778,"Exp":"2100864","Ecp":"135299"},{"Prefix":"ст.","Label":"ст. Гудагай, Гродзенская вобл., Беларусь","LabelTail":"Гродзенская вобл., Беларусь","Value":"Гудагай","Gid":"214","Lon":54.596388888889,"Lat":25.893333333333,"Exp":"2100024","Ecp":"163000"},{"Prefix":"ст.","Label":"ст. Гуды, Гродзенская вобл., Беларусь","LabelTail":"Гродзенская вобл., Беларусь","Value":"Гуды","Gid":"318","Lon":53.956666666667,"Lat":25.265,"Exp":"2100682","Ecp":"137701"},{"Prefix":"п.п.","Label":"п.п. Гута, Віцебская вобл., Беларусь","LabelTail":"Віцебская вобл., Беларусь","Value":"Гута","Gid":"169","Lon":55.206111111111,"Lat":27.195,"Exp":"2100589","Ecp":"164836"},{"Prefix":"ст.","Label":"ст. Гутна, Гродзенская вобл., Беларусь","LabelTail":"Гродзенская вобл., Беларусь","Value":"Гутна","Gid":"316","Lon":53.916666666667,"Lat":25.36,"Exp":"2100521","Ecp":"138009"},{"Prefix":"п.п.","Label":"п.п. Далёкі, Гродзенская вобл., Беларусь","LabelTail":"Гродзенская вобл., Беларусь","Value":"Далёкі","Gid":"314","Lon":53.821388888889,"Lat":25.213055555556,"Exp":"2100738","Ecp":"137557"},{"Prefix":"ст.","Label":"ст. Даманава, Брэсцкая вобл., Беларусь","LabelTail":"Брэсцкая вобл., Беларусь","Value":"Даманава","Gid":"902","Lon":52.827222222222,"Lat":25.471111111111,"Exp":"2100136","Ecp":"134309"},{"Prefix":"п.п.","Label":"п.п. Даманаўскі, Мінская вобл., Беларусь","LabelTail":"Мінская вобл., Беларусь","Value":"Даманаўскі","Gid":"223","Lon":54.420833333333,"Lat":26.879722222222,"Exp":"2101023","Ecp":"162926"},{"Prefix":"п.п.","Label":"п.п. Дамачава, Брэсцкая вобл., Беларусь","LabelTail":"Брэсцкая вобл., Беларусь","Value":"Дамачава","Gid":"84","Lon":51.731111111111,"Lat":23.622777777778,"Exp":"2100702","Ecp":"132337"},{"Prefix":"п.п.","Label":"п.п. Дамашаны, Мінская вобл., Беларусь","LabelTail":"Мінская вобл., Беларусь","Value":"Дамашаны","Gid":"62","Lon":53.993055555556,"Lat":27.951111111111,"Exp":"2101151","Ecp":"140935"},{"Prefix":"ст.","Label":"ст. Дамашэвічы, Брэсцкая вобл., Беларусь","LabelTail":"Брэсцкая вобл., Беларусь","Value":"Дамашэвічы","Gid":"904","Lon":53.1925,"Lat":25.931944444444,"Exp":"2100552","Ecp":"138422"},{"Prefix":"п.п.","Label":"п.п. Данілаў Мост, Магілёўская вобл., Беларусь","LabelTail":"Магілёўская вобл., Беларусь","Value":"Данілаў Мост","Gid":"541","Lon":52.978888888889,"Lat":29.7275,"Exp":"2100331","Ecp":"147830"},{"Prefix":"п.п.","Label":"п.п. Данілаўцы, Гродзенская вобл., Беларусь","LabelTail":"Гродзенская вобл., Беларусь","Value":"Данілаўцы","Gid":"468","Lon":53.326388888889,"Lat":24.43,"Exp":"2101041","Ecp":"137222"},{"Prefix":"ст.","Label":"ст. Дараганава, Магілёўская вобл., Беларусь","LabelTail":"Магілёўская вобл., Беларусь","Value":"Дараганава","Gid":"896","Lon":53.175833333333,"Lat":28.490277777778,"Exp":"2100069","Ecp":"149234"},{"Prefix":"п.п.","Label":"п.п. Дарлівае, Магілёўская вобл., Беларусь","LabelTail":"Магілёўская вобл., Беларусь","Value":"Дарлівае","Gid":"360","Lon":53.761666666667,"Lat":31.645277777778,"Exp":"2100592","Ecp":"158132"},{"Prefix":"п.п.","Label":"п.п. Дары, Магілёўская вобл., Беларусь","LabelTail":"Магілёўская вобл., Беларусь","Value":"Дары","Gid":"736","Lon":53.848055555556,"Lat":30.533611111111,"Exp":"2100593","Ecp":"157718"},{"Prefix":"п.п.","Label":"п.п. Даўгердзішкі, Гродзенская вобл., Беларусь","LabelTail":"Гродзенская вобл., Беларусь","Value":"Даўгердзішкі","Gid":"242","Lon":54.090555555556,"Lat":25.965555555556,"Exp":"2100734","Ecp":"162417"},{"Prefix":"п.п.","Label":"п.п. Дачнае, Брэсцкая вобл., Беларусь","LabelTail":"Брэсцкая вобл., Беларусь","Value":"Дачнае","Gid":"116","Lon":52.18,"Lat":23.595,"Exp":"2100860","Ecp":"132229"},{"Prefix":"п.п.","Label":"п.п. Дачная, Магілёўская вобл., Беларусь","LabelTail":"Магілёўская вобл., Беларусь","Value":"Дачная","Gid":"842","Lon":53.253055555556,"Lat":28.864722222222,"Exp":"2100912","Ecp":"146734"},{"Prefix":"п.п.","Label":"п.п. Дачны, Гомельская вобл., Беларусь","LabelTail":"Гомельская вобл., Беларусь","Value":"Дачны","Gid":"583","Lon":52.364444444444,"Lat":31.0675,"Exp":"2100899","Ecp":"150343"},{"Prefix":"ст.","Label":"ст. Дашкаўка, Магілёўская вобл., Беларусь","LabelTail":"Магілёўская вобл., Беларусь","Value":"Дашкаўка","Gid":"825","Lon":53.7475,"Lat":30.240555555556,"Exp":"2100591","Ecp":"156242"},{"Prefix":"п.п.","Label":"п.п. Дварэц, Гродзенская вобл., Беларусь","LabelTail":"Гродзенская вобл., Беларусь","Value":"Дварэц","Gid":"420","Lon":53.403333333333,"Lat":25.580833333333,"Exp":"2100694","Ecp":"138210"},{"Prefix":"п.п.","Label":"п.п. Дзедаўка, Гомельская вобл., Беларусь","LabelTail":"Гомельская вобл., Беларусь","Value":"Дзедаўка","Gid":"672","Lon":52.231111111111,"Lat":27.661111111111,"Exp":"2100901","Ecp":"152167"},{"Prefix":"ст.","Label":"ст. Дземяхі, Гомельская вобл., Беларусь","LabelTail":"Гомельская вобл., Беларусь","Value":"Дземяхі","Gid":"402","Lon":52.334166666667,"Lat":30.202222222222,"Exp":"2100203","Ecp":"154459"},{"Prefix":"ст.","Label":"ст. Дзераўцы, Магілёўская вобл., Беларусь","LabelTail":"Магілёўская вобл., Беларусь","Value":"Дзераўцы","Gid":"897","Lon":53.256111111111,"Lat":28.5625,"Exp":"2100071","Ecp":"149222"},{"Prefix":"п.п.","Label":"п.п. Дзеткавічы, Брэсцкая вобл., Беларусь","LabelTail":"Брэсцкая вобл., Беларусь","Value":"Дзеткавічы","Gid":"482","Lon":53.120277777778,"Lat":25.692777777778,"Exp":"2100752","Ecp":"137063"},{"Prefix":"п.п.","Label":"п.п. Дзікалаўка, Гомельская вобл., Беларусь","LabelTail":"Гомельская вобл., Беларусь","Value":"Дзікалаўка","Gid":"589","Lon":52.141666666667,"Lat":31.125555555556,"Exp":"2101237","Ecp":"150320"},{"Prefix":"п.п.","Label":"п.п. Дзітва, Гродзенская вобл., Беларусь","LabelTail":"Гродзенская вобл., Беларусь","Value":"Дзітва","Gid":"308","Lon":53.751944444444,"Lat":25.3825,"Exp":"2100842","Ecp":"137631"},{"Prefix":"п.п.","Label":"п.п. Дзітрыкі, Гродзенская вобл., Беларусь","LabelTail":"Гродзенская вобл., Беларусь","Value":"Дзітрыкі","Gid":"307","Lon":53.698055555556,"Lat":25.408333333333,"Exp":"2100906","Ecp":"137650"},{"Prefix":"п.п.","Label":"п.п. Дзягцяны, Мінская вобл., Беларусь","LabelTail":"Мінская вобл., Беларусь","Value":"Дзягцяны","Gid":"501","Lon":53.066111111111,"Lat":26.825,"Exp":"2100536","Ecp":"139020"},{"Prefix":"п.п.","Label":"п.п. Дзяржынск, г. Дзяржынск, Мінская вобл., Беларусь","LabelTail":"г. Дзяржынск, Мінская вобл., Беларусь","Value":"Дзяржынск","Gid":"45","Lon":53.672222222222,"Lat":27.133611111111,"Exp":"2100467","Ecp":"144442"},{"Prefix":"п.п.","Label":"п.п. Дзятлава, Віцебская вобл., Беларусь","LabelTail":"Віцебская вобл., Беларусь","Value":"Дзятлава","Gid":"720","Lon":54.478055555556,"Lat":30.129166666667,"Exp":"2100437","Ecp":"142127"},{"Prefix":"п.п.","Label":"п.п. Дзятлавічы, Брэсцкая вобл., Беларусь","LabelTail":"Брэсцкая вобл., Беларусь","Value":"Дзятлавічы","Gid":"639","Lon":52.359722222222,"Lat":26.793888888889,"Exp":"2100131","Ecp":"139463"},{"Prefix":"ст.","Label":"ст. Койданава, г. Дзяржынск, Мінская вобл., Беларусь","LabelTail":"г. Дзяржынск, Мінская вобл., Беларусь","Value":"Койданава","Gid":"323","Lon":53.682222222222,"Lat":27.158611111111,"Exp":"2100028","Ecp":"144508"},{"Prefix":"ст.","Label":"ст. Добруш, г. Добруш, Гомельская вобл., Беларусь","LabelTail":"г. Добруш, Гомельская вобл., Беларусь","Value":"Добруш","Gid":"30","Lon":52.398333333333,"Lat":31.32,"Exp":"2100192","Ecp":"150509"},{"Prefix":"п.п.","Label":"п.п. Добрына, Віцебская вобл., Беларусь","LabelTail":"Віцебская вобл., Беларусь","Value":"Добрына","Gid":"753","Lon":55.316111111111,"Lat":29.497777777778,"Exp":"2101005","Ecp":"160939"},{"Prefix":"п.п.","Label":"п.п. Доўжа, Віцебская вобл., Беларусь","LabelTail":"Віцебская вобл., Беларусь","Value":"Доўжа","Gid":"956","Lon":55.355833333333,"Lat":30.089444444444,"Exp":"2100931","Ecp":"160356"},{"Prefix":"ст.","Label":"ст. Драгічын, Брэсцкая вобл., Беларусь","LabelTail":"Брэсцкая вобл., Беларусь","Value":"Драгічын","Gid":"656","Lon":52.181944444444,"Lat":25.054722222222,"Exp":"2100125","Ecp":"132905"},{"Prefix":"п.п.","Label":"п.п. Драгічын-Горад, г. Драгічын, Брэсцкая вобл., Беларусь","LabelTail":"г. Драгічын, Брэсцкая вобл., Беларусь","Value":"Драгічын-Горад","Gid":"655","Lon":52.179444444444,"Lat":25.150277777778,"Exp":"2100562","Ecp":"132919"},{"Prefix":"п.п.","Label":"п.п. Дрануха, Магілёўская вобл., Беларусь","LabelTail":"Магілёўская вобл., Беларусь","Value":"Дрануха","Gid":"357","Lon":53.761111111111,"Lat":31.028611111111,"Exp":"2100596","Ecp":"158017"},{"Prefix":"ст.","Label":"ст. Друць, Магілёўская вобл., Беларусь","LabelTail":"Магілёўская вобл., Беларусь","Value":"Друць","Gid":"342","Lon":53.703888888889,"Lat":29.775,"Exp":"2100079","Ecp":"157300"},{"Prefix":"ст.","Label":"ст. Друя, Віцебская вобл., Беларусь","LabelTail":"Віцебская вобл., Беларусь","Value":"Друя","Gid":"127","Lon":55.778055555556,"Lat":27.480277777778,"Exp":"2100056","Ecp":"164605"},{"Prefix":"п.п.","Label":"п.п. Дрычын, Мінская вобл., Беларусь","LabelTail":"Мінская вобл., Беларусь","Value":"Дрычын","Gid":"439","Lon":53.561111111111,"Lat":28.008611111111,"Exp":"2100523","Ecp":"145322"},{"Prefix":"п.п.","Label":"п.п. Дрэбск, Брэсцкая вобл., Беларусь","LabelTail":"Брэсцкая вобл., Беларусь","Value":"Дрэбск","Gid":"670","Lon":52.228888888889,"Lat":27.023888888889,"Exp":"2100681","Ecp":"139444"},{"Prefix":"ст.","Label":"ст. Дрэтунь, Віцебская вобл., Беларусь","LabelTail":"Віцебская вобл., Беларусь","Value":"Дрэтунь","Gid":"135","Lon":55.698611111111,"Lat":29.213888888889,"Exp":"2100034","Ecp":"161518"},{"Prefix":"ст.","Label":"ст. Дубіца, Брэсцкая вобл., Беларусь","LabelTail":"Брэсцкая вобл., Беларусь","Value":"Дубіца","Gid":"87","Lon":51.804444444444,"Lat":23.644166666667,"Exp":"2100182","Ecp":"132303"},{"Prefix":"п.п.","Label":"п.п. Дубна, Гродзенская вобл., Беларусь","LabelTail":"Гродзенская вобл., Беларусь","Value":"Дубна","Gid":"354","Lon":53.459722222222,"Lat":24.388333333333,"Exp":"2100746","Ecp":"135439"},{"Prefix":"п.п.","Label":"п.п. Дубнавічы, Брэсцкая вобл., Беларусь","LabelTail":"Брэсцкая вобл., Беларусь","Value":"Дубнавічы","Gid":"659","Lon":52.268333333333,"Lat":26.446111111111,"Exp":"2100836","Ecp":"133471"},{"Prefix":"п.п.","Label":"п.п. Дубок, Брэсцкая вобл., Беларусь","LabelTail":"Брэсцкая вобл., Беларусь","Value":"Дубок","Gid":"81","Lon":51.9875,"Lat":23.848611111111,"Exp":"2101047","Ecp":"132549"},{"Prefix":"ст.","Label":"ст. Дубравы, Мінская вобл., Беларусь","LabelTail":"Мінская вобл., Беларусь","Value":"Дубравы","Gid":"269","Lon":54.107222222222,"Lat":27.141111111111,"Exp":"2100515","Ecp":"143401"},{"Prefix":"п.п.","Label":"п.п. Дубровічы, Гомельская вобл., Беларусь","LabelTail":"Гомельская вобл., Беларусь","Value":"Дубровічы","Gid":"683","Lon":52.147222222222,"Lat":29.345277777778,"Exp":"2100278","Ecp":"153827"},{"Prefix":"п.п.","Label":"п.п. Дударава, Гомельская вобл., Беларусь","LabelTail":"Гомельская вобл., Беларусь","Value":"Дударава","Gid":"581","Lon":52.388888888889,"Lat":31.218888888889,"Exp":"2100411","Ecp":"150231"},{"Prefix":"п.п.","Label":"п.п. Дудзічы, Гомельская вобл., Беларусь","LabelTail":"Гомельская вобл., Беларусь","Value":"Дудзічы","Gid":"682","Lon":52.182222222222,"Lat":29.365833333333,"Exp":"2100597","Ecp":"153831"},{"Prefix":"п.п.","Label":"п.п. Дэпо, г. Крычаў, Магілёўская вобл., Беларусь","LabelTail":"г. Крычаў, Магілёўская вобл., Беларусь","Value":"Дэпо","Gid":"361","Lon":53.753055555556,"Lat":31.701666666667,"Exp":"2100823","Ecp":"158144"},{"Prefix":"п.п.","Label":"п.п. Дэпоўскі, г. Жлобін, Гомельская вобл., Беларусь","LabelTail":"г. Жлобін, Гомельская вобл., Беларусь","Value":"Дэпоўскі","Gid":"545","Lon":52.893611111111,"Lat":29.996111111111,"Exp":"2100332","Ecp":"155023"},{"Prefix":"ст.","Label":"ст. Езярышча, Віцебская вобл., Беларусь","LabelTail":"Віцебская вобл., Беларусь","Value":"Езярышча","Gid":"137","Lon":55.838611111111,"Lat":29.975833333333,"Exp":"2100041","Ecp":"160801"},{"Prefix":"ст.","Label":"ст. Ельск, г. Ельск, Гомельская вобл., Беларусь","LabelTail":"г. Ельск, Гомельская вобл., Беларусь","Value":"Ельск","Gid":"44","Lon":51.821111111111,"Lat":29.153611111111,"Exp":"2100135","Ecp":"151304"},{"Prefix":"п.п.","Label":"п.п. Ермалоўка, Магілёўская вобл., Беларусь","LabelTail":"Магілёўская вобл., Беларусь","Value":"Ермалоўка","Gid":"722","Lon":54.379166666667,"Lat":30.659444444444,"Exp":"2100847","Ecp":"158619"},{"Prefix":"п.п.","Label":"п.п. Ёткішкі, Гродзенская вобл., Беларусь","LabelTail":"Гродзенская вобл., Беларусь","Value":"Ёткішкі","Gid":"953","Lon":54.208333333333,"Lat":25.349444444444,"Exp":"2100930","Ecp":"137913"},{"Prefix":"ст.","Label":"ст. Жабінка, г. Жабінка, Брэсцкая вобл., Беларусь","LabelTail":"г. Жабінка, Брэсцкая вобл., Беларусь","Value":"Жабінка","Gid":"20","Lon":52.201666666667,"Lat":24.019166666667,"Exp":"2100095","Ecp":"131207"},{"Prefix":"п.п.","Label":"п.п. Жалезніца, Брэсцкая вобл., Беларусь","LabelTail":"Брэсцкая вобл., Беларусь","Value":"Жалезніца","Gid":"921","Lon":53.253055555556,"Lat":25.841666666667,"Exp":"2100923","Ecp":"138456"},{"Prefix":"п.п.","Label":"п.п. Жалудок, Гродзенская вобл., Беларусь","LabelTail":"Гродзенская вобл., Беларусь","Value":"Жалудок","Gid":"416","Lon":53.625,"Lat":24.894722222222,"Exp":"2100742","Ecp":"137415"},{"Prefix":"п.п.","Label":"п.п. Жамчужына, Брэсцкая вобл., Беларусь","LabelTail":"Брэсцкая вобл., Беларусь","Value":"Жамчужына","Gid":"80","Lon":51.995,"Lat":23.8375,"Exp":"2101046","Ecp":"132553"},{"Prefix":"п.п.","Label":"п.п. Жарабковічы, Брэсцкая вобл., Беларусь","LabelTail":"Брэсцкая вобл., Беларусь","Value":"Жарабковічы","Gid":"497","Lon":53.078611111111,"Lat":26.4525,"Exp":"2100535","Ecp":"138954"},{"Prefix":"п.п.","Label":"п.п. Жасцянка, Віцебская вобл., Беларусь","LabelTail":"Віцебская вобл., Беларусь","Value":"Жасцянка","Gid":"207","Lon":54.865833333333,"Lat":29.051944444444,"Exp":"2100689","Ecp":"168216"},{"Prefix":"п.п.","Label":"п.п. Жафарава, Віцебская вобл., Беларусь","LabelTail":"Віцебская вобл., Беларусь","Value":"Жафарава","Gid":"171","Lon":55.143333333333,"Lat":27.080555555556,"Exp":"2100598","Ecp":"164338"},{"Prefix":"п.п.","Label":"п.п. Цукровы Завод, г. Жабінка, Брэсцкая вобл., Беларусь","LabelTail":"г. Жабінка, Брэсцкая вобл., Беларусь","Value":"Цукровы Завод","Gid":"126","Lon":52.187777777778,"Lat":23.983055555556,"Exp":"2100629","Ecp":"130238"},{"Prefix":"ст.","Label":"ст. Ждановічы, Мінская вобл., Беларусь","LabelTail":"Мінская вобл., Беларусь","Value":"Ждановічы","Gid":"338","Lon":53.947222222222,"Lat":27.425277777778,"Exp":"2100279","Ecp":"143651"},{"Prefix":"г.","Label":"г. Жлобін, Гомельская вобл., Беларусь","LabelTail":"Гомельская вобл., Беларусь","Value":"Жлобін","Gid":"46","Lon":52.889722222222,"Lat":30.036666666667,"Exp":"2100080","Ecp":"155004"},{"Prefix":"ст.","Label":"ст. Жлобін Заходні, г. Жлобін, Гомельская вобл., Беларусь","LabelTail":"г. Жлобін, Гомельская вобл., Беларусь","Value":"Жлобін Заходні","Gid":"544","Lon":52.895277777778,"Lat":29.958333333333,"Exp":"2100532","Ecp":"155038"},{"Prefix":"ст.","Label":"ст. Жлобін Падольскі, г. Жлобін, Гомельская вобл., Беларусь","LabelTail":"г. Жлобін, Гомельская вобл., Беларусь","Value":"Жлобін Падольскі","Gid":"390","Lon":52.865555555556,"Lat":30.025833333333,"Exp":"2100533","Ecp":"154270"},{"Prefix":"ст.","Label":"ст. Жлобін Пасажырскі, г. Жлобін, Гомельская вобл., Беларусь","LabelTail":"г. Жлобін, Гомельская вобл., Беларусь","Value":"Жлобін Пасажырскі","Gid":"46","Lon":52.889722222222,"Lat":30.036666666667,"Exp":"2100080","Ecp":"155004"},{"Prefix":"ст.","Label":"ст. Жлобін Паўночны, г. Жлобін, Гомельская вобл., Беларусь","LabelTail":"г. Жлобін, Гомельская вобл., Беларусь","Value":"Жлобін Паўночны","Gid":"386","Lon":52.915277777778,"Lat":30.004444444444,"Exp":"2100408","Ecp":"155822"},{"Prefix":"ст.","Label":"ст. Жлобін Сартавальны, г. Жлобін, Гомельская вобл., Беларусь","LabelTail":"г. Жлобін, Гомельская вобл., Беларусь","Value":"Жлобін Сартавальны","Gid":"388","Lon":52.89,"Lat":30.013055555556,"Exp":"2100798","Ecp":"155841"},{"Prefix":"ст.","Label":"ст. Жодзіна, г. Жодзіна, Мінская вобл., Беларусь","LabelTail":"г. Жодзіна, Мінская вобл., Беларусь","Value":"Жодзіна","Gid":"283","Lon":54.102222222222,"Lat":28.340833333333,"Exp":"2100145","Ecp":"141302"},{"Prefix":"п.п.","Label":"п.п. Жодзіна Паўднёвае, г. Жодзіна, Мінская вобл., Беларусь","LabelTail":"г. Жодзіна, Мінская вобл., Беларусь","Value":"Жодзіна Паўднёвае","Gid":"284","Lon":54.086666666667,"Lat":28.315277777778,"Exp":"2100459","Ecp":"141213"},{"Prefix":"п.п.","Label":"п.п. Журавінка, Гомельская вобл., Беларусь","LabelTail":"Гомельская вобл., Беларусь","Value":"Журавінка","Gid":"591","Lon":52.1925,"Lat":31.108611111111,"Exp":"2100890","Ecp":"150662"},{"Prefix":"п.п.","Label":"п.п. Журавінка, Брэсцкая вобл., Беларусь","LabelTail":"Брэсцкая вобл., Беларусь","Value":"Журавінка","Gid":"661","Lon":52.1725,"Lat":26.795555555556,"Exp":"2100908","Ecp":"139321"},{"Prefix":"п.п.","Label":"п.п. Журбін, Магілёўская вобл., Беларусь","LabelTail":"Магілёўская вобл., Беларусь","Value":"Журбін","Gid":"384","Lon":53.1625,"Lat":32.266388888889,"Exp":"2100094","Ecp":"159019"},{"Prefix":"п.п.","Label":"п.п. Журкі, Віцебская вобл., Беларусь","LabelTail":"Віцебская вобл., Беларусь","Value":"Журкі","Gid":"175","Lon":55.062222222222,"Lat":27.703333333333,"Exp":"2100876","Ecp":"164910"},{"Prefix":"п.п.","Label":"п.п. Жылічы, Гродзенская вобл., Беларусь","LabelTail":"Гродзенская вобл., Беларусь","Value":"Жылічы","Gid":"463","Lon":53.099444444444,"Lat":24.045833333333,"Exp":"2100757","Ecp":"136215"},{"Prefix":"ст.","Label":"ст. Жыткавічы, г. Жыткавічы, Гомельская вобл., Беларусь","LabelTail":"г. Жыткавічы, Гомельская вобл., Беларусь","Value":"Жыткавічы","Gid":"8","Lon":52.218611111111,"Lat":27.856111111111,"Exp":"2100230","Ecp":"153301"},{"Prefix":"ст.","Label":"ст. Жытомля, Гродзенская вобл., Беларусь","LabelTail":"Гродзенская вобл., Беларусь","Value":"Жытомля","Gid":"349","Lon":53.618611111111,"Lat":24.107777777778,"Exp":"2100157","Ecp":"135335"},{"Prefix":"ст.","Label":"ст. Жэрдзь, Гомельская вобл., Беларусь","LabelTail":"Гомельская вобл., Беларусь","Value":"Жэрдзь","Gid":"866","Lon":52.548333333333,"Lat":29.628333333333,"Exp":"2100227","Ecp":"154162"},{"Prefix":"п.п.","Label":"п.п. Заазершчына, Гомельская вобл., Беларусь","LabelTail":"Гомельская вобл., Беларусь","Value":"Заазершчына","Gid":"540","Lon":52.791388888889,"Lat":28.998611111111,"Exp":"2100403","Ecp":"147417"},{"Prefix":"п.п.","Label":"п.п. Забаб'е, Гомельская вобл., Беларусь","LabelTail":"Гомельская вобл., Беларусь","Value":"Забаб'е","Gid":"395","Lon":52.787777777778,"Lat":30.400555555556,"Exp":"2100335","Ecp":"155131"},{"Prefix":"ст.","Label":"ст. Забалоцінка, Віцебская вобл., Беларусь","LabelTail":"Віцебская вобл., Беларусь","Value":"Забалоцінка","Gid":"758","Lon":55.111111111111,"Lat":30.297777777778,"Exp":"2100489","Ecp":"165754"},{"Prefix":"п.п.","Label":"п.п. Забоззе, Гомельская вобл., Беларусь","LabelTail":"Гомельская вобл., Беларусь","Value":"Забоззе","Gid":"106","Lon":51.727777777778,"Lat":29.111111111111,"Exp":"2100803","Ecp":"151215"},{"Prefix":"ст.","Label":"ст. Завадзічы, Гродзенская вобл., Беларусь","LabelTail":"Гродзенская вобл., Беларусь","Value":"Завадзічы","Gid":"348","Lon":53.645,"Lat":24.054722222222,"Exp":"2100544","Ecp":"135320"},{"Prefix":"ст.","Label":"ст. Завольша, Віцебская вобл., Беларусь","LabelTail":"Віцебская вобл., Беларусь","Value":"Завольша","Gid":"760","Lon":54.988333333333,"Lat":30.939722222222,"Exp":"2100492","Ecp":"165608"},{"Prefix":"ст.","Label":"ст. Загацце, Віцебская вобл., Беларусь","LabelTail":"Віцебская вобл., Беларусь","Value":"Загацце","Gid":"143","Lon":55.346111111111,"Lat":28.346388888889,"Exp":"2100246","Ecp":"165148"},{"Prefix":"п.п.","Label":"п.п. Загор'е, Мінская вобл., Беларусь","LabelTail":"Мінская вобл., Беларусь","Value":"Загор'е","Gid":"276","Lon":54.009444444444,"Lat":28.010833333333,"Exp":"2100461","Ecp":"140920"},{"Prefix":"п.п.","Label":"п.п. Загорбашша, Гомельская вобл., Беларусь","LabelTail":"Гомельская вобл., Беларусь","Value":"Загорбашша","Gid":"673","Lon":52.231666666667,"Lat":27.685277777778,"Exp":"2100599","Ecp":"152148"},{"Prefix":"п.п.","Label":"п.п. Заграддзе, Мінская вобл., Беларусь","LabelTail":"Мінская вобл., Беларусь","Value":"Заграддзе","Gid":"527","Lon":52.980277777778,"Lat":27.755833333333,"Exp":"2100781","Ecp":"148636"},{"Prefix":"п.п.","Label":"п.п. Задруцце, Рагачоў, Гомельская вобл., Беларусь","LabelTail":"Рагачоў, Гомельская вобл., Беларусь","Value":"Задруцце","Gid":"830","Lon":53.071388888889,"Lat":30.009166666667,"Exp":"2100921","Ecp":"155926"},{"Prefix":"п.п.","Label":"п.п. Зазерка, Мінская вобл., Беларусь","LabelTail":"Мінская вобл., Беларусь","Value":"Зазерка","Gid":"436","Lon":53.6575,"Lat":27.765277777778,"Exp":"2100320","Ecp":"145040"},{"Prefix":"п.п.","Label":"п.п. Заказанка, Брэсцкая вобл., Беларусь","LabelTail":"Брэсцкая вобл., Беларусь","Value":"Заказанка","Gid":"92","Lon":51.963055555556,"Lat":23.681388888889,"Exp":"2100825","Ecp":"130416"},{"Prefix":"ст.","Label":"ст. Закапыцце, Гомельская вобл., Беларусь","LabelTail":"Гомельская вобл., Беларусь","Value":"Закапыцце","Gid":"577","Lon":52.433611111111,"Lat":31.477777777778,"Exp":"2100216","Ecp":"150513"},{"Prefix":"ст.","Label":"ст. Закруцін, Брэсцкая вобл., Беларусь","LabelTail":"Брэсцкая вобл., Беларусь","Value":"Закруцін","Gid":"78","Lon":51.944722222222,"Lat":23.916944444444,"Exp":"2100557","Ecp":"132500"},{"Prefix":"п.п.","Label":"п.п. Залеская Слабада, Магілёўская вобл., Беларусь","LabelTail":"Магілёўская вобл., Беларусь","Value":"Залеская Слабада","Gid":"371","Lon":53.4475,"Lat":30.181111111111,"Exp":"2100601","Ecp":"156026"},{"Prefix":"ст.","Label":"ст. Залессе, Гродзенская вобл., Беларусь","LabelTail":"Гродзенская вобл., Беларусь","Value":"Залессе","Gid":"224","Lon":54.421111111111,"Lat":26.541111111111,"Exp":"2100022","Ecp":"163405"},{"Prefix":"п.п.","Label":"п.п. Залічынка, Магілёўская вобл., Беларусь","LabelTail":"Магілёўская вобл., Беларусь","Value":"Залічынка","Gid":"827","Lon":53.653888888889,"Lat":29.636111111111,"Exp":"2100928","Ecp":"157245"},{"Prefix":"ст.","Label":"ст. Залучча, Віцебская вобл., Беларусь","LabelTail":"Віцебская вобл., Беларусь","Value":"Залучча","Gid":"796","Lon":55.408611111111,"Lat":30.058888888889,"Exp":"2100495","Ecp":"160337"},{"Prefix":"ст.","Label":"ст. Замасточча, Віцебская вобл., Беларусь","LabelTail":"Віцебская вобл., Беларусь","Value":"Замасточча","Gid":"792","Lon":55.013333333333,"Lat":30.176388888889,"Exp":"2100239","Ecp":"167054"},{"Prefix":"п.п.","Label":"п.п. Замошша, Віцебская вобл., Беларусь","LabelTail":"Віцебская вобл., Беларусь","Value":"Замошша","Gid":"180","Lon":55.096388888889,"Lat":27.856944444444,"Exp":"2101025","Ecp":"165037"},{"Prefix":"п.п.","Label":"п.п. Замошша, Брэсцкая вобл., Беларусь","LabelTail":"Брэсцкая вобл., Беларусь","Value":"Замошша","Gid":"485","Lon":53.215833333333,"Lat":25.887222222222,"Exp":"2100551","Ecp":"138418"},{"Prefix":"п.п.","Label":"п.п. Замужанне, Мінская вобл., Беларусь","LabelTail":"Мінская вобл., Беларусь","Value":"Замужанне","Gid":"286","Lon":54.2525,"Lat":28.788333333333,"Exp":"2100457","Ecp":"141514"},{"Prefix":"п.п.","Label":"п.п. Заполле, Гродзенская вобл., Беларусь","LabelTail":"Гродзенская вобл., Беларусь","Value":"Заполле","Gid":"355","Lon":53.43,"Lat":24.456111111111,"Exp":"2100745","Ecp":"135443"},{"Prefix":"п.п.","Label":"п.п. Зарэчнае, г. Смалявічы, Мінская вобл., Беларусь","LabelTail":"г. Смалявічы, Мінская вобл., Беларусь","Value":"Зарэчнае","Gid":"277","Lon":54.024444444444,"Lat":28.100277777778,"Exp":"2101015","Ecp":"141228"},{"Prefix":"п.п.","Label":"п.п. Заскавічы, Мінская вобл., Беларусь","LabelTail":"Мінская вобл., Беларусь","Value":"Заскавічы","Gid":"225","Lon":54.392222222222,"Lat":26.5925,"Exp":"2100868","Ecp":"163417"},{"Prefix":"ст.","Label":"ст. Заслонава, Віцебская вобл., Беларусь","LabelTail":"Віцебская вобл., Беларусь","Value":"Заслонава","Gid":"201","Lon":54.874166666667,"Lat":28.930833333333,"Exp":"2100443","Ecp":"168201"},{"Prefix":"п.п.","Label":"п.п. Заходняе, Брэсцкая вобл., Беларусь","LabelTail":"Брэсцкая вобл., Беларусь","Value":"Заходняе","Gid":"114","Lon":52.230277777778,"Lat":23.538611111111,"Exp":"2100862","Ecp":"132267"},{"Prefix":"п.п.","Label":"п.п. Зашчоб'е, Гомельская вобл., Беларусь","LabelTail":"Гомельская вобл., Беларусь","Value":"Зашчоб'е","Gid":"690","Lon":52.175555555556,"Lat":29.880555555556,"Exp":"2100507","Ecp":"154552"},{"Prefix":"п.п.","Label":"п.п. Хмелеўка, г. Заслаўе, Мінская вобл., Беларусь","LabelTail":"г. Заслаўе, Мінская вобл., Беларусь","Value":"Хмелеўка","Gid":"273","Lon":54.032222222222,"Lat":27.251111111111,"Exp":"2100764","Ecp":"143515"},{"Prefix":"п.п.","Label":"п.п. Збунін, Брэсцкая вобл., Беларусь","LabelTail":"Брэсцкая вобл., Беларусь","Value":"Збунін","Gid":"88","Lon":51.840833333333,"Lat":23.634722222222,"Exp":"2100700","Ecp":"132318"},{"Prefix":"п.п.","Label":"п.п. Звязда, Магілёўская вобл., Беларусь","LabelTail":"Магілёўская вобл., Беларусь","Value":"Звязда","Gid":"365","Lon":53.713888888889,"Lat":32.01,"Exp":"2100528","Ecp":"158816"},{"Prefix":"п.п.","Label":"п.п. Знаменка, Брэсцкая вобл., Беларусь","LabelTail":"Брэсцкая вобл., Беларусь","Value":"Знаменка","Gid":"89","Lon":51.880555555556,"Lat":23.640555555556,"Exp":"2100699","Ecp":"130384"},{"Prefix":"п.п.","Label":"п.п. Зорны, Віцебская вобл., Беларусь","LabelTail":"Віцебская вобл., Беларусь","Value":"Зорны","Gid":"802","Lon":54.411111111111,"Lat":30.303333333333,"Exp":"2100313","Ecp":"166615"},{"Prefix":"п.п.","Label":"п.п. Зоры, Віцебская вобл., Беларусь","LabelTail":"Віцебская вобл., Беларусь","Value":"Зоры","Gid":"140","Lon":55.500555555556,"Lat":27.525,"Exp":"2100508","Ecp":"164713"},{"Prefix":"п.п.","Label":"п.п. Зубкі, Мінская вобл., Беларусь","LabelTail":"Мінская вобл., Беларусь","Value":"Зубкі","Gid":"500","Lon":53.064166666667,"Lat":26.731666666667,"Exp":"2100714","Ecp":"139016"},{"Prefix":"п.п.","Label":"п.п. Зубры, Магілёўская вобл., Беларусь","LabelTail":"Магілёўская вобл., Беларусь","Value":"Зубры","Gid":"809","Lon":54.345555555556,"Lat":30.741944444444,"Exp":"2100084","Ecp":"158534"},{"Prefix":"ст.","Label":"ст. Зэльва, Гродзенская вобл., Беларусь","LabelTail":"Гродзенская вобл., Беларусь","Value":"Зэльва","Gid":"23","Lon":53.161666666667,"Lat":24.798055555556,"Exp":"2100154","Ecp":"136802"},{"Prefix":"ст.","Label":"ст. Зябкі, Віцебская вобл., Беларусь","LabelTail":"Віцебская вобл., Беларусь","Value":"Зябкі","Gid":"183","Lon":55.256944444444,"Lat":28.174444444444,"Exp":"2100042","Ecp":"165114"},{"Prefix":"ст.","Label":"ст. Зябраўка, Гомельская вобл., Беларусь","LabelTail":"Гомельская вобл., Беларусь","Value":"Зябраўка","Gid":"602","Lon":52.308333333333,"Lat":31.209444444444,"Exp":"2100209","Ecp":"150674"},{"Prefix":"п.п.","Label":"п.п. Зябы, Віцебская вобл., Беларусь","LabelTail":"Віцебская вобл., Беларусь","Value":"Зябы","Gid":"205","Lon":54.794166666667,"Lat":29.263055555556,"Exp":"2100460","Ecp":"168314"},{"Prefix":"п.п.","Label":"п.п. Зялёнае, Мінская вобл., Беларусь","LabelTail":"Мінская вобл., Беларусь","Value":"Зялёнае","Gid":"340","Lon":53.979722222222,"Lat":27.294166666667,"Exp":"2100763","Ecp":"143613"},{"Prefix":"п.п.","Label":"п.п. Зялёны Востраў, Гомельская вобл., Беларусь","LabelTail":"Гомельская вобл., Беларусь","Value":"Зялёны Востраў","Gid":"408","Lon":52.626111111111,"Lat":30.754722222222,"Exp":"2100340","Ecp":"155254"},{"Prefix":"п.п.","Label":"п.п. Івакі, Гомельская вобл., Беларусь","LabelTail":"Гомельская вобл., Беларусь","Value":"Івакі","Gid":"598","Lon":52.264166666667,"Lat":31.3425,"Exp":"2100345","Ecp":"150640"},{"Prefix":"ст.","Label":"ст. Івацэвічы, г. Івацэвічы, Брэсцкая вобл., Беларусь","LabelTail":"г. Івацэвічы, Брэсцкая вобл., Беларусь","Value":"Івацэвічы","Gid":"22","Lon":52.708888888889,"Lat":25.345,"Exp":"2101045","Ecp":"134205"},{"Prefix":"ст.","Label":"ст. Янаў Палескі, г. Іванава, Брэсцкая вобл., Беларусь","LabelTail":"г. Іванава, Брэсцкая вобл., Беларусь","Value":"Янаў Палескі","Gid":"15","Lon":52.129166666667,"Lat":25.550833333333,"Exp":"2100235","Ecp":"133109"},{"Prefix":"п.п.","Label":"п.п. Ідолта, Віцебская вобл., Беларусь","LabelTail":"Віцебская вобл., Беларусь","Value":"Ідолта","Gid":"130","Lon":55.701111111111,"Lat":27.580555555556,"Exp":"2100602","Ecp":"164612"},{"Prefix":"п.п.","Label":"п.п. Ізбынь, Гомельская вобл., Беларусь","LabelTail":"Гомельская вобл., Беларусь","Value":"Ізбынь","Gid":"692","Lon":52.099166666667,"Lat":29.991666666667,"Exp":"2100427","Ecp":"154533"},{"Prefix":"п.п.","Label":"п.п. Ілава, Мінская вобл., Беларусь","LabelTail":"Мінская вобл., Беларусь","Value":"Ілава","Gid":"193","Lon":54.819444444444,"Lat":27.459166666667,"Exp":"2101024","Ecp":"163829"},{"Prefix":"п.п.","Label":"п.п. Інстытут Культуры, г. Мінск, Мінская вобл., Беларусь","LabelTail":"г. Мінск, Мінская вобл., Беларусь","Value":"Інстытут Культуры","Gid":"73","Lon":53.8825,"Lat":27.531388888889,"Exp":"2100002","Ecp":"140013"},{"Prefix":"ст.","Label":"ст. Іпуць, Гомельская вобл., Беларусь","LabelTail":"Гомельская вобл., Беларусь","Value":"Іпуць","Gid":"633","Lon":52.402777777778,"Lat":31.089722222222,"Exp":"2100425","Ecp":"155771"},{"Prefix":"п.п.","Label":"п.п. Іса, Гродзенская вобл., Беларусь","LabelTail":"Гродзенская вобл., Беларусь","Value":"Іса","Gid":"473","Lon":53.0775,"Lat":25.482222222222,"Exp":"2100753","Ecp":"137035"},{"Prefix":"п.п.","Label":"п.п. Істобкі, Гомельская вобл., Беларусь","LabelTail":"Гомельская вобл., Беларусь","Value":"Істобкі","Gid":"547","Lon":52.795,"Lat":29.920833333333,"Exp":"2100603","Ecp":"154247"},{"Prefix":"п.п.","Label":"п.п. Іўная, Брэсцкая вобл., Беларусь","LabelTail":"Брэсцкая вобл., Беларусь","Value":"Іўная","Gid":"481","Lon":53.105833333333,"Lat":25.588333333333,"Exp":"2100541","Ecp":"137059"},{"Prefix":"п.п.","Label":"п.п. Лабачы, Гродзенская вобл., Беларусь","LabelTail":"Гродзенская вобл., Беларусь","Value":"Лабачы","Gid":"244","Lon":54.033055555556,"Lat":25.834722222222,"Exp":"2100735","Ecp":"162328"},{"Prefix":"п.п.","Label":"п.п. Лазовікі, Віцебская вобл., Беларусь","LabelTail":"Віцебская вобл., Беларусь","Value":"Лазовікі","Gid":"202","Lon":54.880833333333,"Lat":28.855833333333,"Exp":"2100690","Ecp":"168112"},{"Prefix":"ст.","Label":"ст. Лазурная, Гомельская вобл., Беларусь","LabelTail":"Гомельская вобл., Беларусь","Value":"Лазурная","Gid":"558","Lon":52.571666666667,"Lat":30.879166666667,"Exp":"2100218","Ecp":"155409"},{"Prefix":"п.п.","Label":"п.п. Ламачына, Віцебская вобл., Беларусь","LabelTail":"Віцебская вобл., Беларусь","Value":"Ламачына","Gid":"715","Lon":54.508055555556,"Lat":30.238888888889,"Exp":"2100435","Ecp":"142146"},{"Prefix":"ст.","Label":"ст. Лапічы, Магілёўская вобл., Беларусь","LabelTail":"Магілёўская вобл., Беларусь","Value":"Лапічы","Gid":"447","Lon":53.429166666667,"Lat":28.487222222222,"Exp":"2100444","Ecp":"146221"},{"Prefix":"ст.","Label":"ст. Ларышчава, Гомельская вобл., Беларусь","LabelTail":"Гомельская вобл., Беларусь","Value":"Ларышчава","Gid":"121","Lon":52.389166666667,"Lat":31.168333333333,"Exp":"2100214","Ecp":"150227"},{"Prefix":"п.п.","Label":"п.п. Ласі, Мінская вобл., Беларусь","LabelTail":"Мінская вобл., Беларусь","Value":"Ласі","Gid":"266","Lon":54.215,"Lat":27.095,"Exp":"2100769","Ecp":"142310"},{"Prefix":"п.п.","Label":"п.п. Ластаянцы, Мінская вобл., Беларусь","LabelTail":"Мінская вобл., Беларусь","Value":"Ластаянцы","Gid":"250","Lon":54.203333333333,"Lat":26.298611111111,"Exp":"2100730","Ecp":"162525"},{"Prefix":"ст.","Label":"ст. Латва, Магілёўская вобл., Беларусь","LabelTail":"Магілёўская вобл., Беларусь","Value":"Латва","Gid":"807","Lon":54.093888888889,"Lat":30.269166666667,"Exp":"2100494","Ecp":"156543"},{"Prefix":"ст.","Label":"ст. Лахва, Брэсцкая вобл., Беларусь","LabelTail":"Брэсцкая вобл., Беларусь","Value":"Лахва","Gid":"879","Lon":52.223055555556,"Lat":27.078055555556,"Exp":"2100138","Ecp":"151944"},{"Prefix":"ст.","Label":"ст. Лёзна, Віцебская вобл., Беларусь","LabelTail":"Віцебская вобл., Беларусь","Value":"Лёзна","Gid":"39","Lon":55.013333333333,"Lat":30.795833333333,"Exp":"2100038","Ecp":"165701"},{"Prefix":"п.п.","Label":"п.п. Ленінадар, Гомельская вобл., Беларусь","LabelTail":"Гомельская вобл., Беларусь","Value":"Ленінадар","Gid":"609","Lon":52.173055555556,"Lat":31.636666666667,"Exp":"2100415","Ecp":"150759"},{"Prefix":"ст.","Label":"ст. Лепель, г. Лепель, Віцебская вобл., Беларусь","LabelTail":"г. Лепель, Віцебская вобл., Беларусь","Value":"Лепель","Gid":"38","Lon":54.875277777778,"Lat":28.691111111111,"Exp":"2100018","Ecp":"168108"},{"Prefix":"п.п.","Label":"п.п. Леснікі, Гродзенская вобл., Беларусь","LabelTail":"Гродзенская вобл., Беларусь","Value":"Леснікі","Gid":"767","Lon":53.108888888889,"Lat":24.194166666667,"Exp":"2100297","Ecp":"136268"},{"Prefix":"п.п.","Label":"п.п. Лётцы, Віцебская вобл., Беларусь","LabelTail":"Віцебская вобл., Беларусь","Value":"Лётцы","Gid":"187","Lon":55.204444444444,"Lat":29.9325,"Exp":"2100610","Ecp":"160036"},{"Prefix":"ст.","Label":"ст. Ліда, г. Ліда, Гродзенская вобл., Беларусь","LabelTail":"г. Ліда, Гродзенская вобл., Беларусь","Value":"Ліда","Gid":"317","Lon":53.882222222222,"Lat":25.2925,"Exp":"2100250","Ecp":"137608"},{"Prefix":"п.п.","Label":"п.п. Ліпа, Мінская вобл., Беларусь","LabelTail":"Мінская вобл., Беларусь","Value":"Ліпа","Gid":"488","Lon":53.261111111111,"Lat":26.443611111111,"Exp":"2100580","Ecp":"138579"},{"Prefix":"п.п.","Label":"п.п. Ліпава, Брэсцкая вобл., Беларусь","LabelTail":"Брэсцкая вобл., Беларусь","Value":"Ліпава","Gid":"931","Lon":52.193055555556,"Lat":24.595833333333,"Exp":"2100905","Ecp":"132842"},{"Prefix":"п.п.","Label":"п.п. Ліпінкі, Брэсцкая вобл., Беларусь","LabelTail":"Брэсцкая вобл., Беларусь","Value":"Ліпінкі","Gid":"82","Lon":51.698055555556,"Lat":23.598611111111,"Exp":"2100703","Ecp":"132341"},{"Prefix":"п.п.","Label":"п.п. Ліпнікі, Брэсцкая вобл., Беларусь","LabelTail":"Брэсцкая вобл., Беларусь","Value":"Ліпнікі","Gid":"654","Lon":52.168055555556,"Lat":25.232777777778,"Exp":"2100563","Ecp":"132924"},{"Prefix":"ст.","Label":"ст. Лісічкі, Гомельская вобл., Беларусь","LabelTail":"Гомельская вобл., Беларусь","Value":"Лісічкі","Gid":"584","Lon":52.385,"Lat":31.059166666667,"Exp":"2100207","Ecp":"150246"},{"Prefix":"ст.","Label":"ст. Ліскі, Гомельская вобл., Беларусь","LabelTail":"Гомельская вобл., Беларусь","Value":"Ліскі","Gid":"587","Lon":52.325555555556,"Lat":30.092222222222,"Exp":"2100287","Ecp":"154430"},{"Prefix":"п.п.","Label":"п.п. Лістапады, Мінская вобл., Беларусь","LabelTail":"Мінская вобл., Беларусь","Value":"Лістапады","Gid":"251","Lon":54.218055555556,"Lat":26.369166666667,"Exp":"2100729","Ecp":"162530"},{"Prefix":"п.п.","Label":"п.п. Літва, Мінская вобл., Беларусь","LabelTail":"Мінская вобл., Беларусь","Value":"Літва","Gid":"763","Lon":54.223888888889,"Lat":26.655277777778,"Exp":"2101022","Ecp":"162351"},{"Prefix":"п.п.","Label":"п.п. Ліхачы, Гродзенская вобл., Беларусь","LabelTail":"Гродзенская вобл., Беларусь","Value":"Ліхачы","Gid":"298","Lon":53.928055555556,"Lat":24.198055555556,"Exp":"2100429","Ecp":"134949"},{"Prefix":"п.п.","Label":"п.п. Лобча, Брэсцкая вобл., Беларусь","LabelTail":"Брэсцкая вобл., Беларусь","Value":"Лобча","Gid":"664","Lon":52.294722222222,"Lat":26.531666666667,"Exp":"2100718","Ecp":"133429"},{"Prefix":"п.п.","Label":"п.п. Логвіны, Гродзенская вобл., Беларусь","LabelTail":"Гродзенская вобл., Беларусь","Value":"Логвіны","Gid":"415","Lon":53.595,"Lat":24.855555555556,"Exp":"2100743","Ecp":"137420"},{"Prefix":"п.п.","Label":"п.п. Лозкі, Гомельская вобл., Беларусь","LabelTail":"Гомельская вобл., Беларусь","Value":"Лозкі","Gid":"693","Lon":52.196944444444,"Lat":29.615555555556,"Exp":"2100294","Ecp":"153873"},{"Prefix":"ст.","Label":"ст. Лосвіда, Віцебская вобл., Беларусь","LabelTail":"Віцебская вобл., Беларусь","Value":"Лосвіда","Gid":"795","Lon":55.328611111111,"Lat":30.088055555556,"Exp":"2100611","Ecp":"160322"},{"Prefix":"п.п.","Label":"п.п. Лосева, Гродзенская вобл., Беларусь","LabelTail":"Гродзенская вобл., Беларусь","Value":"Лосева","Gid":"301","Lon":53.859444444444,"Lat":24.104444444444,"Exp":"2101031","Ecp":"134924"},{"Prefix":"ст.","Label":"ст. Лоўча, Брэсцкая вобл., Беларусь","LabelTail":"Брэсцкая вобл., Беларусь","Value":"Лоўча","Gid":"939","Lon":52.296111111111,"Lat":26.617777777778,"Exp":"2100147","Ecp":"133433"},{"Prefix":"ст.","Label":"ст. Лоўша, Віцебская вобл., Беларусь","LabelTail":"Віцебская вобл., Беларусь","Value":"Лоўша","Gid":"186","Lon":55.316944444444,"Lat":29.449722222222,"Exp":"2100236","Ecp":"160910"},{"Prefix":"п.п.","Label":"п.п. Лошыца, г. Мінск, Мінская вобл., Беларусь","LabelTail":"г. Мінск, Мінская вобл., Беларусь","Value":"Лошыца","Gid":"55","Lon":53.850277777778,"Lat":27.556111111111,"Exp":"2100800","Ecp":"140511"},{"Prefix":"ст.","Label":"ст. Лудчыцы, Магілёўская вобл., Беларусь","LabelTail":"Магілёўская вобл., Беларусь","Value":"Лудчыцы","Gid":"372","Lon":53.405,"Lat":30.163333333333,"Exp":"2100672","Ecp":"156011"},{"Prefix":"ст.","Label":"ст. Лужасна, Віцебская вобл., Беларусь","LabelTail":"Віцебская вобл., Беларусь","Value":"Лужасна","Gid":"794","Lon":55.255277777778,"Lat":30.1125,"Exp":"2100289","Ecp":"160318"},{"Prefix":"п.п.","Label":"п.п. Лужкі, Віцебская вобл., Беларусь","LabelTail":"Віцебская вобл., Беларусь","Value":"Лужкі","Gid":"704","Lon":54.753333333333,"Lat":30.277222222222,"Exp":"2100493","Ecp":"166776"},{"Prefix":"п.п.","Label":"п.п. Лук'янаўка, Гомельская вобл., Беларусь","LabelTail":"Гомельская вобл., Беларусь","Value":"Лук'янаўка","Gid":"608","Lon":52.166944444444,"Lat":31.588611111111,"Exp":"2100414","Ecp":"150744"},{"Prefix":"ст.","Label":"ст. Лукскае, Гомельская вобл., Беларусь","LabelTail":"Гомельская вобл., Беларусь","Value":"Лукскае","Gid":"385","Lon":52.987222222222,"Lat":30.005,"Exp":"2100242","Ecp":"155818"},{"Prefix":"ст.","Label":"ст. Лунінец, г. Лунінец, Брэсцкая вобл., Беларусь","LabelTail":"г. Лунінец, Брэсцкая вобл., Беларусь","Value":"Лунінец","Gid":"13","Lon":52.243888888889,"Lat":26.806666666667,"Exp":"2100291","Ecp":"139406"},{"Prefix":"ст.","Label":"ст. Лупалава, г. Магілёў, Магілёўская вобл., Беларусь","LabelTail":"г. Магілёў, Магілёўская вобл., Беларусь","Value":"Лупалава","Gid":"746","Lon":53.876944444444,"Lat":30.404166666667,"Exp":"2100051","Ecp":"157705"},{"Prefix":"ст.","Label":"ст. Лучоса, Віцебская вобл., Беларусь","LabelTail":"Віцебская вобл., Беларусь","Value":"Лучоса","Gid":"701","Lon":55.151111111111,"Lat":30.215,"Exp":"2100780","Ecp":"165769"},{"Prefix":"ст.","Label":"ст. Лынтупы, Віцебская вобл., Беларусь","LabelTail":"Віцебская вобл., Беларусь","Value":"Лынтупы","Gid":"160","Lon":55.041111111111,"Lat":26.310555555556,"Exp":"2100468","Ecp":"164516"},{"Prefix":"п.п.","Label":"п.п. Лычкоўскага, Віцебская вобл., Беларусь","LabelTail":"Віцебская вобл., Беларусь","Value":"Лычкоўскага","Gid":"790","Lon":54.93,"Lat":30.189722222222,"Exp":"2100674","Ecp":"167035"},{"Prefix":"ст.","Label":"ст. Лышчыцы, Брэсцкая вобл., Беларусь","LabelTail":"Брэсцкая вобл., Беларусь","Value":"Лышчыцы","Gid":"919","Lon":52.256388888889,"Lat":23.495833333333,"Exp":"2100677","Ecp":"132204"},{"Prefix":"п.п.","Label":"п.п. Любажэрдзе, Брэсцкая вобл., Беларусь","LabelTail":"Брэсцкая вобл., Беларусь","Value":"Любажэрдзе","Gid":"665","Lon":52.233055555556,"Lat":26.818611111111,"Exp":"2100613","Ecp":"139425"},{"Prefix":"п.п.","Label":"п.п. Любань, Брэсцкая вобл., Беларусь","LabelTail":"Брэсцкая вобл., Беларусь","Value":"Любань","Gid":"669","Lon":52.223055555556,"Lat":27.131111111111,"Exp":"2100612","Ecp":"151910"},{"Prefix":"п.п.","Label":"п.п. Любашава, Брэсцкая вобл., Беларусь","LabelTail":"Брэсцкая вобл., Беларусь","Value":"Любашава","Gid":"884","Lon":52.786944444444,"Lat":26.408333333333,"Exp":"2101034","Ecp":"139641"},{"Prefix":"п.п.","Label":"п.п. Людзяневічы, Гомельская вобл., Беларусь","LabelTail":"Гомельская вобл., Беларусь","Value":"Людзяневічы","Gid":"676","Lon":52.223333333333,"Lat":27.748333333333,"Exp":"2100614","Ecp":"152152"},{"Prefix":"п.п.","Label":"п.п. Люсіна, Брэсцкая вобл., Беларусь","LabelTail":"Брэсцкая вобл., Беларусь","Value":"Люсіна","Gid":"635","Lon":52.656944444444,"Lat":26.490277777778,"Exp":"2100151","Ecp":"139533"},{"Prefix":"п.п.","Label":"п.п. Люта, Брэсцкая вобл., Беларусь","LabelTail":"Брэсцкая вобл., Беларусь","Value":"Люта","Gid":"111","Lon":52.284166666667,"Lat":23.4525,"Exp":"2100712","Ecp":"131739"},{"Prefix":"ст.","Label":"ст. Люшча, Брэсцкая вобл., Беларусь","LabelTail":"Брэсцкая вобл., Беларусь","Value":"Люшча","Gid":"882","Lon":52.449722222222,"Lat":26.708888888889,"Exp":"2100260","Ecp":"139502"},{"Prefix":"п.п.","Label":"п.п. Лябяды, Гродзенская вобл., Беларусь","LabelTail":"Гродзенская вобл., Беларусь","Value":"Лябяды","Gid":"471","Lon":53.186944444444,"Lat":24.693055555556,"Exp":"2100293","Ecp":"136747"},{"Prefix":"п.п.","Label":"п.п. Лябяжы, г. Мінск, Мінская вобл., Беларусь","LabelTail":"г. Мінск, Мінская вобл., Беларусь","Value":"Лябяжы","Gid":"335","Lon":53.936944444444,"Lat":27.4425,"Exp":"2100865","Ecp":"143685"},{"Prefix":"ст.","Label":"ст. Лямніца, Віцебская вобл., Беларусь","LabelTail":"Віцебская вобл., Беларусь","Value":"Лямніца","Gid":"237","Lon":54.639444444444,"Lat":29.896666666667,"Exp":"2100292","Ecp":"168633"},{"Prefix":"п.п.","Label":"п.п. Ляплёўка, Брэсцкая вобл., Беларусь","LabelTail":"Брэсцкая вобл., Беларусь","Value":"Ляплёўка","Gid":"86","Lon":51.765,"Lat":23.645833333333,"Exp":"2100701","Ecp":"132322"},{"Prefix":"ст.","Label":"ст. Лясная, Брэсцкая вобл., Беларусь","LabelTail":"Брэсцкая вобл., Беларусь","Value":"Лясная","Gid":"901","Lon":52.979444444444,"Lat":25.766666666667,"Exp":"2100193","Ecp":"134402"},{"Prefix":"п.п.","Label":"п.п. Лясы, Брэсцкая вобл., Беларусь","LabelTail":"Брэсцкая вобл., Беларусь","Value":"Лясы","Gid":"551","Lon":52.410555555556,"Lat":24.331944444444,"Exp":"2100565","Ecp":"131251"},{"Prefix":"ст.","Label":"ст. Ляхавічы, г. Ляхавічы, Брэсцкая вобл., Беларусь","LabelTail":"г. Ляхавічы, Брэсцкая вобл., Беларусь","Value":"Ляхавічы","Gid":"886","Lon":53.0275,"Lat":26.2325,"Exp":"2100133","Ecp":"139904"},{"Prefix":"п.п.","Label":"п.п. Ляхаўшчына, Віцебская вобл., Беларусь","LabelTail":"Віцебская вобл., Беларусь","Value":"Ляхаўшчына","Gid":"174","Lon":55.139444444444,"Lat":27.321944444444,"Exp":"2100878","Ecp":"164412"},{"Prefix":"г.","Label":"г. Магілёў, Магілёўская вобл., Беларусь","LabelTail":"Магілёўская вобл., Беларусь","Value":"Магілёў","Gid":"745","Lon":53.926111111111,"Lat":30.337777777778,"Exp":"2100150","Ecp":"156609"},{"Prefix":"ст.","Label":"ст. Маладзечна, г. Маладзечна, Мінская вобл., Беларусь","LabelTail":"г. Маладзечна, Мінская вобл., Беларусь","Value":"Маладзечна","Gid":"255","Lon":54.316111111111,"Lat":26.838888888889,"Exp":"2100280","Ecp":"162900"},{"Prefix":"ст.","Label":"ст. Каледзіно, г. Маладзечна, Мінская вобл., Беларусь","LabelTail":"г. Маладзечна, Мінская вобл., Беларусь","Value":"Каледзіно","Gid":"256","Lon":54.299166666667,"Lat":26.810555555556,"Exp":"2100724","Ecp":"162807"},{"Prefix":"п.п.","Label":"п.п. Фестывальны, г. Маладзечна, Мінская вобл., Беларусь","LabelTail":"г. Маладзечна, Мінская вобл., Беларусь","Value":"Фестывальны","Gid":"779","Lon":54.301388888889,"Lat":26.883055555556,"Exp":"2100434","Ecp":"142377"},{"Prefix":"ст.","Label":"ст. Козенкі, г. Мазыр, Гомельская вобл., Беларусь","LabelTail":"г. Мазыр, Гомельская вобл., Беларусь","Value":"Козенкі","Gid":"861","Lon":52.0325,"Lat":29.179722222222,"Exp":"2100254","Ecp":"151605"},{"Prefix":"ст.","Label":"ст. Магілёў 1, г. Магілёў, Магілёўская вобл., Беларусь","LabelTail":"г. Магілёў, Магілёўская вобл., Беларусь","Value":"Магілёў 1","Gid":"745","Lon":53.926111111111,"Lat":30.337777777778,"Exp":"2100150","Ecp":"156609"},